$GPGGA,151608.30,3913.75929988,N,09634.81293719,W,2,08,1.1,315.690,M,-30.395,M,6.2,0133*78
$GPGGA,151608.40,3913.75929980,N,09634.81293721,W,2,08,1.1,315.690,M,-30.395,M,6.4,0133*7A
$GPGGA,151608.50,3913.75929973,N,09634.81293723,W,2,08,1.1,315.691,M,-30.395,M,6.4,0133*74
$GNGST,151608.50,0.648,0.710,0.528,154.0,0.678,0.568,0.990*46
$GPGGA,151608.60,3913.75929966,N,09634.81293725,W,2,08,1.1,315.691,M,-30.395,M,6.6,0133*77
$GPGGA,151608.70,3913.75929959,N,09634.81293726,W,2,08,1.1,315.691,M,-30.395,M,6.6,0133*79
$GPGGA,151608.80,3913.75929952,N,09634.81293728,W,2,08,1.1,315.692,M,-30.395,M,6.8,0133*7E
$GPGGA,151608.90,3913.75929945,N,09634.81293730,W,2,08,1.1,315.692,M,-30.395,M,6.8,0133*70
$GPGGA,151609.00,3913.75929938,N,09634.81293732,W,2,08,1.1,315.692,M,-30.395,M,7.0,0133*79
$GNGST,151609.00,0.649,0.710,0.528,154.0,0.679,0.568,0.990*42
$GPGGA,151609.10,3913.75929930,N,09634.81293733,W,2,08,1.1,315.693,M,-30.395,M,7.0,0133*70
$GPGGA,151609.20,3913.75929923,N,09634.81293735,W,2,08,1.1,315.693,M,-30.395,M,7.2,0133*75
$GPGGA,151609.30,3913.75929916,N,09634.81293737,W,2,08,1.1,315.693,M,-30.395,M,7.2,0133*70
$GPGGA,151609.40,3913.75929909,N,09634.81293738,W,2,08,1.1,315.694,M,-30.395,M,6.4,0133*76
$GPGGA,151609.50,3913.75929902,N,09634.81293740,W,2,08,1.1,315.694,M,-30.395,M,6.4,0133*73
$GNGST,151609.50,0.670,0.710,0.528,154.0,0.678,0.568,0.990*4C
$GPGGA,151609.60,3913.75929895,N,09634.81293742,W,2,08,1.1,315.694,M,-30.395,M,6.6,0133*7F
$GPGGA,151609.70,3913.75929888,N,09634.81293744,W,2,08,1.1,315.694,M,-30.395,M,6.6,0133*74
$GPGGA,151609.80,3913.75929881,N,09634.81293746,W,2,08,1.1,315.695,M,-30.395,M,6.8,0133*7F
$GPGGA,151609.90,3913.75929874,N,09634.81293747,W,2,08,1.1,315.695,M,-30.395,M,6.8,0133*75
$GPGGA,151610.00,3913.75929867,N,09634.81293749,W,2,08,1.1,315.695,M,-30.395,M,7.0,0133*71
$GNGST,151610.00,0.677,0.710,0.528,153.9,0.679,0.568,0.991*48
$GPGGA,151610.10,3913.75929861,N,09634.81293751,W,2,08,1.1,315.696,M,-30.395,M,7.0,0133*7C
$GPGGA,151610.20,3913.75929854,N,09634.81293752,W,2,08,1.1,315.696,M,-30.395,M,7.2,0133*78
$GPGGA,151610.30,3913.75929847,N,09634.81293754,W,2,08,1.1,315.696,M,-30.395,M,7.2,0133*7D
$GPGGA,151610.40,3913.75929840,N,09634.81293755,W,2,08,1.1,315.697,M,-30.395,M,6.4,0133*7A
$GPGGA,151610.50,3913.75929833,N,09634.81293757,W,2,08,1.1,315.697,M,-30.395,M,6.4,0133*7D
$GNGST,151610.50,0.678,0.710,0.528,153.9,0.678,0.568,0.991*43
$GPGGA,151610.60,3913.75929826,N,09634.81293758,W,2,08,1.1,315.697,M,-30.395,M,6.6,0133*77
$GPGGA,151610.70,3913.75929819,N,09634.81293760,W,2,08,1.1,315.698,M,-30.395,M,6.6,0133*7E
$GPGGA,151610.80,3913.75929813,N,09634.81293762,W,2,08,1.1,315.698,M,-30.395,M,6.8,0133*77
$GPGGA,151610.90,3913.75929806,N,09634.81293763,W,2,08,1.1,315.698,M,-30.395,M,6.8,0133*73
$GPGGA,151611.00,3913.75929799,N,09634.81293765,W,2,08,1.1,315.699,M,-30.395,M,7.0,0133*7C
$GNGST,151611.00,0.685,0.710,0.528,153.9,0.678,0.568,0.992*46
$GPGGA,151611.10,3913.75929792,N,09634.81293766,W,2,08,1.1,315.699,M,-30.395,M,7.0,0133*75
$GPGGA,151611.20,3913.75929786,N,09634.81293768,W,2,08,1.1,315.699,M,-30.395,M,7.2,0133*7F
$GPGGA,151611.30,3913.75929779,N,09634.81293770,W,2,08,1.1,315.700,M,-30.395,M,7.2,0133*76
$GPGGA,151611.40,3913.75929772,N,09634.81293771,W,2,08,1.1,315.700,M,-30.395,M,3.4,0133*79
$GPGGA,151611.50,3913.75929766,N,09634.81293773,W,2,08,1.1,315.700,M,-30.395,M,3.4,0133*7F
$GNGST,151611.50,0.739,0.710,0.528,153.9,0.678,0.568,0.992*45
$GPGGA,151611.60,3913.75929759,N,09634.81293774,W,2,08,1.1,315.700,M,-30.395,M,3.6,0133*75
$GPGGA,151611.70,3913.75929753,N,09634.81293776,W,2,08,1.1,315.701,M,-30.395,M,3.6,0133*7D
$GPGGA,151611.80,3913.75929746,N,09634.81293777,W,2,08,1.1,315.701,M,-30.395,M,3.8,0133*79
$GPGGA,151611.90,3913.75929739,N,09634.81293779,W,2,08,1.1,315.701,M,-30.395,M,3.8,0133*7E
$GPGGA,151612.00,3913.75929733,N,09634.81293780,W,2,08,1.1,315.702,M,-30.395,M,4.0,0133*74
$GNGST,151612.00,0.736,0.710,0.528,153.9,0.678,0.568,0.992*4C
$GPGGA,151612.10,3913.75929726,N,09634.81293782,W,2,08,1.1,315.702,M,-30.395,M,4.0,0133*73
$GPGGA,151612.20,3913.75929720,N,09634.81293783,W,2,08,1.1,315.702,M,-30.395,M,4.2,0133*75
$GPGGA,151612.30,3913.75929713,N,09634.81293785,W,2,08,1.1,315.703,M,-30.395,M,4.2,0133*73
$GPGGA,151612.40,3913.75929707,N,09634.81293786,W,2,08,1.1,315.703,M,-30.395,M,4.4,0133*74
$GPGGA,151612.50,3913.75929700,N,09634.81293788,W,2,08,1.1,315.703,M,-30.395,M,4.4,0133*7C
$GNGST,151612.50,0.731,0.710,0.528,153.9,0.678,0.568,0.992*4E
$GPGGA,151612.60,3913.75929694,N,09634.81293790,W,2,08,1.1,315.703,M,-30.395,M,4.6,0133*78
$GPGGA,151612.70,3913.75929688,N,09634.81293791,W,2,08,1.1,315.704,M,-30.395,M,4.6,0133*72
$GPGGA,151612.80,3913.75929681,N,09634.81293793,W,2,08,1.1,315.704,M,-30.395,M,4.8,0133*78
$GPGGA,151612.90,3913.75929675,N,09634.81293794,W,2,08,1.1,315.704,M,-30.395,M,4.8,0133*75
$GPGGA,151613.00,3913.75929669,N,09634.81293796,W,2,08,1.1,315.705,M,-30.395,M,5.0,0133*7A
$GNGST,151613.00,0.734,0.710,0.528,153.9,0.679,0.568,0.992*4E
$GPGGA,151613.10,3913.75929662,N,09634.81293798,W,2,08,1.1,315.705,M,-30.395,M,5.0,0133*7E
$GPGGA,151613.20,3913.75929656,N,09634.81293799,W,2,08,1.1,315.705,M,-30.395,M,5.2,0133*79
$GPGGA,151613.30,3913.75929650,N,09634.81293801,W,2,08,1.1,315.706,M,-30.395,M,5.2,0133*73
$GPGGA,151613.40,3913.75929644,N,09634.81293802,W,2,08,1.1,315.706,M,-30.395,M,5.4,0133*74
$GPGGA,151613.50,3913.75929637,N,09634.81293804,W,2,08,1.1,315.706,M,-30.395,M,5.4,0133*77
$GNGST,151613.50,0.733,0.710,0.528,153.9,0.679,0.568,0.992*4C
$GPGGA,151613.60,3913.75929631,N,09634.81293806,W,2,08,1.1,315.706,M,-30.395,M,5.6,0133*72
$GPGGA,151613.70,3913.75929625,N,09634.81293807,W,2,08,1.1,315.707,M,-30.395,M,5.6,0133*76
$GPGGA,151613.80,3913.75929619,N,09634.81293809,W,2,08,1.1,315.707,M,-30.395,M,5.8,0133*76
$GPGGA,151613.90,3913.75929613,N,09634.81293811,W,2,08,1.1,315.707,M,-30.395,M,5.8,0133*74
$GPGGA,151614.00,3913.75929607,N,09634.81293812,W,2,08,1.1,315.708,M,-30.395,M,6.0,0133*78
$GNGST,151614.00,0.732,0.710,0.528,153.9,0.679,0.568,0.992*4F
$GPGGA,151614.10,3913.75929600,N,09634.81293814,W,2,08,1.1,315.708,M,-30.395,M,6.0,0133*78
$GPGGA,151614.20,3913.75929594,N,09634.81293816,W,2,08,1.1,315.708,M,-30.395,M,6.2,0133*75
$GPGGA,151614.30,3913.75929588,N,09634.81293817,W,2,08,1.1,315.709,M,-30.395,M,6.2,0133*79
$GPGGA,151614.40,3913.75929582,N,09634.81293819,W,2,08,1.1,315.709,M,-30.395,M,6.4,0133*7C
$GPGGA,151614.50,3913.75929576,N,09634.81293821,W,2,08,1.1,315.709,M,-30.395,M,6.4,0133*7D
$GNGST,151614.50,0.728,0.710,0.528,153.9,0.679,0.568,0.992*41
$GPGGA,151614.60,3913.75929570,N,09634.81293822,W,2,08,1.1,315.709,M,-30.395,M,6.6,0133*79
$GPGGA,151614.70,3913.75929563,N,09634.81293824,W,2,08,1.1,315.710,M,-30.395,M,6.6,0133*74
$GPGGA,151614.80,3913.75929557,N,09634.81293826,W,2,08,1.1,315.710,M,-30.395,M,6.8,0133*70
$GPGGA,151614.90,3913.75929551,N,09634.81293827,W,2,08,1.1,315.710,M,-30.395,M,6.8,0133*76
$GPGGA,151615.00,3913.75929545,N,09634.81293829,W,2,08,1.1,315.711,M,-30.395,M,7.0,0133*7D
$GNGST,151615.00,0.733,0.710,0.528,153.9,0.679,0.568,0.992*4F
$GPGGA,151615.10,3913.75929539,N,09634.81293831,W,2,08,1.1,315.711,M,-30.395,M,7.0,0133*7E
$GPGGA,151615.20,3913.75929532,N,09634.81293832,W,2,08,1.1,315.711,M,-30.395,M,7.2,0133*77
$GPGGA,151615.30,3913.75929526,N,09634.81293834,W,2,08,1.1,315.711,M,-30.395,M,7.2,0133*75
$GPGGA,151615.40,3913.75929520,N,09634.81293836,W,2,08,1.1,315.712,M,-30.395,M,6.4,0133*72
$GPGGA,151615.50,3913.75929514,N,09634.81293837,W,2,08,1.1,315.712,M,-30.395,M,6.4,0133*75
$GNGST,151615.50,0.725,0.710,0.528,153.9,0.678,0.568,0.992*4C
$GPGGA,151615.60,3913.75929507,N,09634.81293839,W,2,08,1.1,315.712,M,-30.395,M,6.6,0133*78
$GPGGA,151615.70,3913.75929501,N,09634.81293841,W,2,08,1.1,315.713,M,-30.395,M,6.6,0133*71
$GPGGA,151615.80,3913.75929494,N,09634.81293842,W,2,08,1.1,315.713,M,-30.395,M,6.8,0133*7E
$GPGGA,151615.90,3913.75929488,N,09634.81293844,W,2,08,1.1,315.713,M,-30.395,M,6.8,0133*74
$GPGGA,151616.00,3913.75929482,N,09634.81293845,W,2,08,1.1,315.714,M,-30.395,M,7.0,0133*7B
$GNGST,151616.00,0.724,0.710,0.528,153.9,0.678,0.568,0.992*4B
$GPGGA,151616.10,3913.75929475,N,09634.81293847,W,2,08,1.1,315.714,M,-30.395,M,7.0,0133*70
$GPGGA,151616.20,3913.75929469,N,09634.81293848,W,2,08,1.1,315.714,M,-30.395,M,7.2,0133*73
$GPGGA,151616.30,3913.75929462,N,09634.81293850,W,2,08,1.1,315.714,M,-30.395,M,7.2,0133*70
$GPGGA,151616.40,3913.75929455,N,09634.81293851,W,2,08,1.1,315.715,M,-30.395,M,6.4,0133*74
$GPGGA,151616.50,3913.75929449,N,09634.81293853,W,2,08,1.1,315.715,M,-30.395,M,6.4,0133*7A
$GNGST,151616.50,0.722,0.710,0.528,153.9,0.678,0.568,0.992*48
$GPGGA,151616.60,3913.75929442,N,09634.81293854,W,2,08,1.1,315.715,M,-30.395,M,6.6,0133*77
$GPGGA,151616.70,3913.75929435,N,09634.81293856,W,2,08,1.1,315.716,M,-30.395,M,6.6,0133*77
$GPGGA,151616.80,3913.75929429,N,09634.81293857,W,2,08,1.1,315.716,M,-30.395,M,6.8,0133*7A
$GPGGA,151616.90,3913.75929422,N,09634.81293858,W,2,08,1.1,315.716,M,-30.395,M,6.8,0133*7F
$GPGGA,151617.00,3913.75929415,N,09634.81293860,W,2,08,1.1,315.717,M,-30.395,M,7.0,0133*70
$GNGST,151617.00,0.719,0.710,0.528,153.9,0.678,0.568,0.992*44
$GPGGA,151617.10,3913.75929409,N,09634.81293861,W,2,08,1.1,315.717,M,-30.395,M,7.0,0133*7D
$GPGGA,151617.20,3913.75929402,N,09634.81293863,W,2,08,1.1,315.717,M,-30.395,M,7.2,0133*75
$GPGGA,151617.30,3913.75929395,N,09634.81293864,W,2,08,1.1,315.718,M,-30.395,M,7.2,0133*75
$GPGGA,151617.40,3913.75929389,N,09634.81293866,W,2,08,1.1,315.718,M,-30.395,M,3.4,0133*7F
$GPGGA,151617.50,3913.75929382,N,09634.81293867,W,2,08,1.1,315.718,M,-30.395,M,3.4,0133*74
$GNGST,151617.50,0.724,0.710,0.528,153.9,0.678,0.568,0.992*4F
$GPGGA,151617.60,3913.75929375,N,09634.81293869,W,2,08,1.1,315.718,M,-30.395,M,3.6,0133*73
$GPGGA,151617.70,3913.75929369,N,09634.81293870,W,2,08,1.1,315.719,M,-30.395,M,3.6,0133*76
$GPGGA,151617.80,3913.75929362,N,09634.81293872,W,2,08,1.1,315.719,M,-30.395,M,3.8,0133*7E
$GPGGA,151617.90,3913.75929355,N,09634.81293873,W,2,08,1.1,315.719,M,-30.395,M,3.8,0133*7A
$GPGGA,151618.00,3913.75929349,N,09634.81293875,W,2,08,1.1,315.720,M,-30.395,M,4.0,0133*72
$GNGST,151618.00,0.732,0.710,0.528,153.9,0.678,0.568,0.992*42
$GPGGA,151618.10,3913.75929342,N,09634.81293877,W,2,08,1.1,315.720,M,-30.395,M,4.0,0133*7A
$GPGGA,151618.20,3913.75929335,N,09634.81293878,W,2,08,1.1,315.720,M,-30.395,M,4.2,0133*74
$GPGGA,151618.30,3913.75929328,N,09634.81293880,W,2,08,1.1,315.721,M,-30.395,M,4.2,0133*7F
$GPGGA,151618.40,3913.75929321,N,09634.81293881,W,2,08,1.1,315.721,M,-30.395,M,4.4,0133*76
$GPGGA,151618.50,3913.75929315,N,09634.81293883,W,2,08,1.1,315.721,M,-30.395,M,4.4,0133*72
$GNGST,151618.50,0.732,0.710,0.528,153.9,0.678,0.568,0.992*47
$GPGGA,151618.60,3913.75929308,N,09634.81293884,W,2,08,1.1,315.722,M,-30.395,M,4.6,0133*7B
$GPGGA,151618.70,3913.75929301,N,09634.81293886,W,2,08,1.1,315.722,M,-30.395,M,4.6,0133*71
$GPGGA,151618.80,3913.75929295,N,09634.81293888,W,2,08,1.1,315.722,M,-30.395,M,4.8,0133*72
$GPGGA,151618.90,3913.75929288,N,09634.81293889,W,2,08,1.1,315.723,M,-30.395,M,4.8,0133*7F
$GPGGA,151619.00,3913.75929281,N,09634.81293891,W,2,08,1.1,315.723,M,-30.395,M,5.0,0133*7E
$GNGST,151619.00,0.739,0.709,0.528,153.9,0.678,0.568,0.992*40
$GPGGA,151619.10,3913.75929274,N,09634.81293892,W,2,08,1.1,315.723,M,-30.395,M,5.0,0133*76
$GPGGA,151619.20,3913.75929268,N,09634.81293893,W,2,08,1.1,315.723,M,-30.395,M,5.2,0133*7B
$GPGGA,151619.30,3913.75929261,N,09634.81293895,W,2,08,1.1,315.724,M,-30.395,M,5.2,0133*72
$GPGGA,151619.40,3913.75929254,N,09634.81293896,W,2,08,1.1,315.724,M,-30.395,M,5.4,0133*76
$GPGGA,151619.50,3913.75929247,N,09634.81293898,W,2,08,1.1,315.724,M,-30.395,M,5.4,0133*7B
$GNGST,151619.50,0.740,0.709,0.528,153.9,0.678,0.568,0.991*48
$GPGGA,151619.60,3913.75929241,N,09634.81293899,W,2,08,1.1,315.725,M,-30.395,M,5.6,0133*7C
$GPGGA,151619.70,3913.75929234,N,09634.81293901,W,2,08,1.1,315.725,M,-30.395,M,5.6,0133*7F
$GPGGA,151619.80,3913.75929227,N,09634.81293902,W,2,08,1.1,315.725,M,-30.395,M,5.8,0133*7F
$GPGGA,151619.90,3913.75929220,N,09634.81293904,W,2,08,1.1,315.726,M,-30.395,M,5.8,0133*7C
$GPGGA,151620.00,3913.75929214,N,09634.81293905,W,2,08,1.1,315.726,M,-30.395,M,6.0,0133*72
$GNGST,151620.00,0.748,0.709,0.528,153.9,0.678,0.568,0.991*4F
$GPGGA,151620.10,3913.75929207,N,09634.81293907,W,2,08,1.1,315.726,M,-30.395,M,6.0,0133*73
$GPGGA,151620.20,3913.75929200,N,09634.81293909,W,2,08,1.1,315.726,M,-30.395,M,6.2,0133*7B
$GPGGA,151620.30,3913.75929193,N,09634.81293910,W,2,08,1.1,315.727,M,-30.395,M,6.2,0133*7A
$GPGGA,151620.40,3913.75929186,N,09634.81293912,W,2,08,1.1,315.727,M,-30.395,M,6.4,0133*7D
$GPGGA,151620.50,3913.75929180,N,09634.81293913,W,2,08,1.1,315.727,M,-30.395,M,6.4,0133*7B
$GNGST,151620.50,0.751,0.709,0.528,153.9,0.678,0.568,0.991*42
$GPGGA,151620.60,3913.75929173,N,09634.81293915,W,2,08,1.1,315.728,M,-30.395,M,6.6,0133*7F
$GPGGA,151620.70,3913.75929166,N,09634.81293916,W,2,08,1.1,315.728,M,-30.395,M,6.6,0133*79
$GPGGA,151620.80,3913.75929159,N,09634.81293918,W,2,08,1.1,315.728,M,-30.395,M,6.8,0133*7A
$GPGGA,151620.90,3913.75929153,N,09634.81293919,W,2,08,1.1,315.729,M,-30.395,M,6.8,0133*71
$GPGGA,151621.00,3913.75929146,N,09634.81293921,W,2,08,1.1,315.729,M,-30.395,M,7.0,0133*7F
$GNGST,151621.00,0.752,0.709,0.528,153.9,0.678,0.568,0.990*44
$GPGGA,151621.10,3913.75929139,N,09634.81293922,W,2,08,1.1,315.729,M,-30.395,M,7.0,0133*75
$GPGGA,151621.20,3913.75929132,N,09634.81293923,W,2,08,1.1,315.730,M,-30.395,M,7.2,0133*76
$GPGGA,151621.30,3913.75929126,N,09634.81293925,W,2,08,1.1,315.730,M,-30.395,M,7.2,0133*74
$GPGGA,151621.40,3913.75929119,N,09634.81293926,W,2,08,1.1,315.730,M,-30.395,M,6.4,0133*7B
$GPGGA,151621.50,3913.75929112,N,09634.81293927,W,2,08,1.1,315.731,M,-30.395,M,6.4,0133*71
$GNGST,151621.50,0.733,0.709,0.528,153.9,0.678,0.568,0.990*46
$GPGGA,151621.60,3913.75929106,N,09634.81293928,W,2,08,1.1,315.731,M,-30.395,M,6.6,0133*7A
$GPGGA,151621.70,3913.75929099,N,09634.81293930,W,2,08,1.1,315.731,M,-30.395,M,6.6,0133*75
$GPGGA,151621.80,3913.75929093,N,09634.81293931,W,2,08,1.1,315.731,M,-30.395,M,6.8,0133*7F
$GPGGA,151621.90,3913.75929086,N,09634.81293932,W,2,08,1.1,315.732,M,-30.395,M,6.8,0133*7A
$GPGGA,151622.00,3913.75929080,N,09634.81293934,W,2,08,1.1,315.732,M,-30.395,M,7.0,0133*79
$GNGST,151622.00,0.734,0.709,0.528,153.9,0.678,0.568,0.990*47
$GPGGA,151622.10,3913.75929073,N,09634.81293935,W,2,08,1.1,315.732,M,-30.395,M,7.0,0133*75
$GPGGA,151622.20,3913.75929067,N,09634.81293937,W,2,08,1.1,315.733,M,-30.395,M,7.2,0133*72
$GPGGA,151622.30,3913.75929061,N,09634.81293938,W,2,08,1.1,315.733,M,-30.395,M,7.2,0133*7A
$GPGGA,151622.40,3913.75929055,N,09634.81293940,W,2,08,1.1,315.733,M,-30.395,M,6.4,0133*72
$GPGGA,151622.50,3913.75929049,N,09634.81293942,W,2,08,1.1,315.734,M,-30.395,M,6.4,0133*7B
$GNGST,151622.50,0.729,0.709,0.528,153.9,0.678,0.568,0.991*4F
$GPGGA,151622.60,3913.75929043,N,09634.81293943,W,2,08,1.1,315.734,M,-30.395,M,6.6,0133*71
$GPGGA,151622.70,3913.75929037,N,09634.81293945,W,2,08,1.1,315.734,M,-30.395,M,6.6,0133*75
$GPGGA,151622.80,3913.75929031,N,09634.81293947,W,2,08,1.1,315.735,M,-30.395,M,6.8,0133*71
$GPGGA,151622.90,3913.75929025,N,09634.81293948,W,2,08,1.1,315.735,M,-30.395,M,6.8,0133*7A
$GPGGA,151623.00,3913.75929019,N,09634.81293950,W,2,08,1.1,315.735,M,-30.395,M,7.0,0133*7D
$GNGST,151623.00,0.716,0.709,0.529,153.9,0.678,0.568,0.991*46
$GPGGA,151623.10,3913.75929013,N,09634.81293952,W,2,08,1.1,315.735,M,-30.395,M,7.0,0133*74
$GPGGA,151623.20,3913.75929007,N,09634.81293953,W,2,08,1.1,315.736,M,-30.395,M,7.2,0133*72
$GPGGA,151623.30,3913.75929001,N,09634.81293955,W,2,08,1.1,315.736,M,-30.395,M,7.2,0133*73
$GPGGA,151623.40,3913.75928996,N,09634.81293957,W,2,08,1.1,315.736,M,-30.395,M,3.4,0133*72
$GPGGA,151623.50,3913.75928990,N,09634.81293958,W,2,08,1.1,315.737,M,-30.395,M,3.4,0133*7B
$GNGST,151623.50,0.702,0.709,0.529,153.9,0.678,0.568,0.990*47
$GPGGA,151623.60,3913.75928984,N,09634.81293960,W,2,08,1.1,315.737,M,-30.395,M,3.6,0133*74
$GPGGA,151623.70,3913.75928979,N,09634.81293962,W,2,08,1.1,315.737,M,-30.395,M,3.6,0133*75
$GPGGA,151623.80,3913.75928973,N,09634.81293963,W,2,08,1.1,315.738,M,-30.395,M,3.8,0133*70
$GPGGA,151623.90,3913.75928967,N,09634.81293965,W,2,08,1.1,315.738,M,-30.395,M,3.8,0133*72
$GPGGA,151624.00,3913.75928962,N,09634.81293966,W,2,08,1.1,315.738,M,-30.395,M,4.0,0133*75
$GNGST,151624.00,0.694,0.709,0.529,153.9,0.678,0.568,0.991*4A
$GPGGA,151624.10,3913.75928956,N,09634.81293968,W,2,08,1.1,315.739,M,-30.395,M,4.0,0133*7C
$GPGGA,151624.20,3913.75928951,N,09634.81293970,W,2,08,1.1,315.739,M,-30.395,M,4.2,0133*73
$GPGGA,151624.30,3913.75928945,N,09634.81293971,W,2,08,1.1,315.739,M,-30.395,M,4.2,0133*76
$GPGGA,151624.40,3913.75928940,N,09634.81293973,W,2,08,1.1,315.739,M,-30.395,M,4.4,0133*70
$GPGGA,151624.50,3913.75928934,N,09634.81293975,W,2,08,1.1,315.740,M,-30.395,M,4.4,0133*7A
$GNGST,151624.50,0.689,0.709,0.529,153.9,0.678,0.568,0.991*43
$GPGGA,151624.60,3913.75928929,N,09634.81293976,W,2,08,1.1,315.740,M,-30.395,M,4.6,0133*74
$GPGGA,151624.70,3913.75928923,N,09634.81293978,W,2,08,1.1,315.740,M,-30.395,M,4.6,0133*71
$GPGGA,151624.80,3913.75928918,N,09634.81293980,W,2,08,1.1,315.741,M,-30.395,M,4.8,0133*7E
$GPGGA,151624.90,3913.75928912,N,09634.81293981,W,2,08,1.1,315.741,M,-30.395,M,4.8,0133*74
$GPGGA,151625.00,3913.75928906,N,09634.81293983,W,2,08,1.1,315.741,M,-30.395,M,5.0,0133*72
$GNGST,151625.00,0.694,0.709,0.529,153.9,0.678,0.568,0.991*4B
$GPGGA,151625.10,3913.75928901,N,09634.81293985,W,2,08,1.1,315.742,M,-30.395,M,5.0,0133*71
$GPGGA,151625.20,3913.75928896,N,09634.81293987,W,2,08,1.1,315.742,M,-30.395,M,5.2,0133*7D
$GPGGA,151625.30,3913.75928890,N,09634.81293989,W,2,08,1.1,315.742,M,-30.395,M,5.2,0133*74
$GPGGA,151625.40,3913.75928885,N,09634.81293991,W,2,08,1.1,315.742,M,-30.395,M,5.4,0133*78
$GPGGA,151625.50,3913.75928879,N,09634.81293992,W,2,08,1.1,315.743,M,-30.395,M,5.4,0133*78
$GNGST,151625.50,0.687,0.710,0.529,153.9,0.678,0.568,0.991*44
$GPGGA,151625.60,3913.75928874,N,09634.81293994,W,2,08,1.1,315.743,M,-30.395,M,5.6,0133*72
$GPGGA,151625.70,3913.75928869,N,09634.81293996,W,2,08,1.1,315.743,M,-30.395,M,5.6,0133*7D
$GPGGA,151625.80,3913.75928863,N,09634.81293998,W,2,08,1.1,315.744,M,-30.395,M,5.8,0133*7F
$GPGGA,151625.90,3913.75928858,N,09634.81294000,W,2,08,1.1,315.744,M,-30.395,M,5.8,0133*79
$GPGGA,151626.00,3913.75928853,N,09634.81294002,W,2,08,1.1,315.744,M,-30.395,M,6.0,0133*71
$GNGST,151626.00,0.688,0.710,0.529,153.9,0.678,0.568,0.991*4D
$GPGGA,151626.10,3913.75928847,N,09634.81294004,W,2,08,1.1,315.744,M,-30.395,M,6.0,0133*73
$GPGGA,151626.20,3913.75928842,N,09634.81294007,W,2,08,1.1,315.745,M,-30.395,M,6.2,0133*75
$GPGGA,151626.30,3913.75928837,N,09634.81294009,W,2,08,1.1,315.745,M,-30.395,M,6.2,0133*78
$GPGGA,151626.40,3913.75928832,N,09634.81294011,W,2,08,1.1,315.745,M,-30.395,M,6.4,0133*75
$GPGGA,151626.50,3913.75928827,N,09634.81294013,W,2,08,1.1,315.746,M,-30.395,M,6.4,0133*71
$GNGST,151626.50,0.685,0.710,0.529,153.9,0.678,0.568,0.991*45
$GPGGA,151626.60,3913.75928822,N,09634.81294015,W,2,08,1.1,315.746,M,-30.395,M,6.6,0133*73
$GPGGA,151626.70,3913.75928816,N,09634.81294017,W,2,08,1.1,315.746,M,-30.395,M,6.6,0133*77
$GPGGA,151626.80,3913.75928811,N,09634.81294020,W,2,08,1.1,315.746,M,-30.395,M,6.8,0133*75
$GPGGA,151626.90,3913.75928806,N,09634.81294022,W,2,08,1.1,315.747,M,-30.395,M,6.8,0133*71
$GPGGA,151627.00,3913.75928801,N,09634.81294024,W,2,08,1.1,315.747,M,-30.395,M,7.0,0133*71
$GNGST,151627.00,0.687,0.710,0.529,153.9,0.678,0.568,0.991*43
$GPGGA,151627.10,3913.75928796,N,09634.81294027,W,2,08,1.1,315.747,M,-30.395,M,7.0,0133*72
$GPGGA,151627.20,3913.75928791,N,09634.81294029,W,2,08,1.1,315.748,M,-30.395,M,7.2,0133*75
$GPGGA,151627.30,3913.75928785,N,09634.81294031,W,2,08,1.1,315.748,M,-30.395,M,7.2,0133*78
$GPGGA,151627.40,3913.75928780,N,09634.81294034,W,2,08,1.1,315.748,M,-30.395,M,6.4,0133*78
$GPGGA,151627.50,3913.75928775,N,09634.81294036,W,2,08,1.1,315.748,M,-30.395,M,6.4,0133*71
$GNGST,151627.50,0.682,0.709,0.529,153.9,0.678,0.568,0.992*48
$GPGGA,151627.60,3913.75928770,N,09634.81294038,W,2,08,1.1,315.749,M,-30.395,M,6.6,0133*7A
$GPGGA,151627.70,3913.75928764,N,09634.81294040,W,2,08,1.1,315.749,M,-30.395,M,6.6,0133*71
$GPGGA,151627.80,3913.75928759,N,09634.81294043,W,2,08,1.1,315.749,M,-30.395,M,6.8,0133*7D
$GPGGA,151627.90,3913.75928754,N,09634.81294045,W,2,08,1.1,315.749,M,-30.395,M,6.8,0133*77
$GPGGA,151628.00,3913.75928749,N,09634.81294048,W,2,08,1.1,315.750,M,-30.395,M,7.0,0133*71
$GNGST,151628.00,0.684,0.709,0.529,153.9,0.678,0.568,0.992*44
$GPGGA,151628.10,3913.75928743,N,09634.81294050,W,2,08,1.1,315.750,M,-30.395,M,7.0,0133*73
$GPGGA,151628.20,3913.75928738,N,09634.81294052,W,2,08,1.1,315.750,M,-30.395,M,7.2,0133*7C
$GPGGA,151628.30,3913.75928733,N,09634.81294055,W,2,08,1.1,315.751,M,-30.395,M,7.2,0133*70
$GPGGA,151628.40,3913.75928728,N,09634.81294057,W,2,08,1.1,315.751,M,-30.395,M,6.4,0133*78
$GPGGA,151628.50,3913.75928723,N,09634.81294060,W,2,08,1.1,315.751,M,-30.395,M,6.4,0133*76
$GNGST,151628.50,0.685,0.709,0.529,153.9,0.678,0.568,0.992*40
$GPGGA,151628.60,3913.75928717,N,09634.81294062,W,2,08,1.1,315.751,M,-30.395,M,6.6,0133*72
$GPGGA,151628.70,3913.75928712,N,09634.81294065,W,2,08,1.1,315.752,M,-30.395,M,6.6,0133*72
$GPGGA,151628.80,3913.75928707,N,09634.81294068,W,2,08,1.1,315.752,M,-30.395,M,6.8,0133*7A
$GPGGA,151628.90,3913.75928702,N,09634.81294070,W,2,08,1.1,315.752,M,-30.395,M,6.8,0133*77
$GPGGA,151629.00,3913.75928697,N,09634.81294073,W,2,08,1.1,315.752,M,-30.395,M,7.0,0133*78
$GNGST,151629.00,0.684,0.709,0.529,153.9,0.678,0.568,0.992*45
$GPGGA,151629.10,3913.75928692,N,09634.81294075,W,2,08,1.1,315.753,M,-30.395,M,7.0,0133*7B
$GPGGA,151629.20,3913.75928687,N,09634.81294078,W,2,08,1.1,315.753,M,-30.395,M,7.2,0133*73
$GPGGA,151629.30,3913.75928681,N,09634.81294080,W,2,08,1.1,315.753,M,-30.395,M,7.2,0133*73
$GPGGA,151629.40,3913.75928676,N,09634.81294083,W,2,08,1.1,315.753,M,-30.395,M,3.4,0133*7D
$GPGGA,151629.50,3913.75928671,N,09634.81294086,W,2,08,1.1,315.754,M,-30.395,M,3.4,0133*79
$GNGST,151629.50,0.681,0.709,0.529,153.9,0.678,0.568,0.991*46
$GPGGA,151629.60,3913.75928666,N,09634.81294088,W,2,08,1.1,315.754,M,-30.395,M,3.6,0133*70
$GPGGA,151629.70,3913.75928661,N,09634.81294091,W,2,08,1.1,315.754,M,-30.395,M,3.6,0133*7E
$GPGGA,151629.80,3913.75928655,N,09634.81294094,W,2,08,1.1,315.754,M,-30.395,M,3.8,0133*7D
$GPGGA,151629.90,3913.75928650,N,09634.81294096,W,2,08,1.1,315.755,M,-30.395,M,3.8,0133*7A
$GPGGA,151630.00,3913.75928645,N,09634.81294099,W,2,08,1.1,315.755,M,-30.395,M,4.0,0133*7F
$GNGST,151630.00,0.688,0.709,0.529,153.9,0.678,0.568,0.992*41
$GPGGA,151630.10,3913.75928640,N,09634.81294102,W,2,08,1.1,315.755,M,-30.395,M,4.0,0133*78
$GPGGA,151630.20,3913.75928634,N,09634.81294105,W,2,08,1.1,315.755,M,-30.395,M,4.2,0133*7D
$GPGGA,151630.30,3913.75928629,N,09634.81294107,W,2,08,1.1,315.756,M,-30.395,M,4.2,0133*71
$GPGGA,151630.40,3913.75928624,N,09634.81294110,W,2,08,1.1,315.756,M,-30.395,M,4.4,0133*7B
$GPGGA,151630.50,3913.75928618,N,09634.81294113,W,2,08,1.1,315.756,M,-30.395,M,4.4,0133*76
$GNGST,151630.50,0.699,0.709,0.529,153.9,0.678,0.568,0.992*44
$GPGGA,151630.60,3913.75928613,N,09634.81294115,W,2,08,1.1,315.756,M,-30.395,M,4.6,0133*7A
$GPGGA,151630.70,3913.75928607,N,09634.81294118,W,2,08,1.1,315.757,M,-30.395,M,4.6,0133*72
$GPGGA,151630.80,3913.75928602,N,09634.81294121,W,2,08,1.1,315.757,M,-30.395,M,4.8,0133*7C
$GPGGA,151630.90,3913.75928597,N,09634.81294124,W,2,08,1.1,315.757,M,-30.395,M,4.8,0133*77
$GPGGA,151631.00,3913.75928591,N,09634.81294126,W,2,08,1.1,315.757,M,-30.395,M,5.0,0133*72
$GNGST,151631.00,0.709,0.709,0.529,153.9,0.678,0.568,0.992*48
$GPGGA,151631.10,3913.75928586,N,09634.81294129,W,2,08,1.1,315.758,M,-30.395,M,5.0,0133*75
$GPGGA,151631.20,3913.75928580,N,09634.81294132,W,2,08,1.1,315.758,M,-30.395,M,5.2,0133*78
$GPGGA,151631.30,3913.75928575,N,09634.81294135,W,2,08,1.1,315.758,M,-30.395,M,5.2,0133*74
$GPGGA,151631.40,3913.75928569,N,09634.81294137,W,2,08,1.1,315.758,M,-30.395,M,5.4,0133*7A
$GPGGA,151631.50,3913.75928563,N,09634.81294140,W,2,08,1.1,315.759,M,-30.395,M,5.4,0133*70
$GNGST,151631.50,0.714,0.709,0.529,153.9,0.678,0.568,0.992*41
$GPGGA,151631.60,3913.75928558,N,09634.81294143,W,2,08,1.1,315.759,M,-30.395,M,5.6,0133*7A
$GPGGA,151631.70,3913.75928552,N,09634.81294146,W,2,08,1.1,315.759,M,-30.395,M,5.6,0133*74
$GPGGA,151631.80,3913.75928547,N,09634.81294148,W,2,08,1.1,315.759,M,-30.395,M,5.8,0133*7F
$GPGGA,151631.90,3913.75928541,N,09634.81294151,W,2,08,1.1,315.760,M,-30.395,M,5.8,0133*7A
$GPGGA,151632.00,3913.75928536,N,09634.81294154,W,2,08,1.1,315.760,M,-30.395,M,6.0,0133*7E
$GNGST,151632.00,0.726,0.709,0.529,153.9,0.678,0.568,0.993*47
$GPGGA,151632.10,3913.75928530,N,09634.81294157,W,2,08,1.1,315.760,M,-30.395,M,6.0,0133*7A
$GPGGA,151632.20,3913.75928525,N,09634.81294159,W,2,08,1.1,315.761,M,-30.395,M,6.2,0133*70
$GPGGA,151632.30,3913.75928519,N,09634.81294162,W,2,08,1.1,315.761,M,-30.395,M,6.2,0133*76
$GPGGA,151632.40,3913.75928513,N,09634.81294165,W,2,08,1.1,315.761,M,-30.395,M,6.4,0133*7A
$GPGGA,151632.50,3913.75928508,N,09634.81294167,W,2,08,1.1,315.761,M,-30.395,M,6.4,0133*73
$GNGST,151632.50,0.733,0.709,0.529,153.9,0.678,0.568,0.993*46
$GPGGA,151632.60,3913.75928502,N,09634.81294170,W,2,08,1.1,315.762,M,-30.395,M,6.6,0133*7D
$GPGGA,151632.70,3913.75928497,N,09634.81294173,W,2,08,1.1,315.762,M,-30.395,M,6.6,0133*72
$GPGGA,151632.80,3913.75928491,N,09634.81294175,W,2,08,1.1,315.762,M,-30.395,M,6.8,0133*73
$GPGGA,151632.90,3913.75928486,N,09634.81294178,W,2,08,1.1,315.762,M,-30.395,M,6.8,0133*79
$GPGGA,151633.00,3913.75928480,N,09634.81294180,W,2,08,1.1,315.763,M,-30.395,M,7.0,0133*78
$GNGST,151633.00,0.737,0.709,0.529,153.9,0.678,0.568,0.993*46
$GPGGA,151633.10,3913.75928475,N,09634.81294183,W,2,08,1.1,315.763,M,-30.395,M,7.0,0133*70
$GPGGA,151633.20,3913.75928469,N,09634.81294185,W,2,08,1.1,315.763,M,-30.395,M,7.2,0133*7A
$GPGGA,151633.30,3913.75928464,N,09634.81294188,W,2,08,1.1,315.763,M,-30.395,M,7.2,0133*7B
$GPGGA,151633.40,3913.75928459,N,09634.81294190,W,2,08,1.1,315.764,M,-30.395,M,6.4,0133*7B
$GPGGA,151633.50,3913.75928453,N,09634.81294193,W,2,08,1.1,315.764,M,-30.395,M,6.4,0133*73
$GNGST,151633.50,0.725,0.709,0.529,153.9,0.678,0.568,0.994*47
$GPGGA,151633.60,3913.75928448,N,09634.81294195,W,2,08,1.1,315.764,M,-30.395,M,6.6,0133*7E
$GPGGA,151633.70,3913.75928443,N,09634.81294198,W,2,08,1.1,315.764,M,-30.395,M,6.6,0133*79
$GPGGA,151633.80,3913.75928438,N,09634.81294200,W,2,08,1.1,315.765,M,-30.395,M,6.8,0133*77
$GPGGA,151633.90,3913.75928433,N,09634.81294203,W,2,08,1.1,315.765,M,-30.395,M,6.8,0133*7E
$GPGGA,151634.00,3913.75928428,N,09634.81294206,W,2,08,1.1,315.765,M,-30.395,M,7.0,0133*76
$GNGST,151634.00,0.717,0.709,0.529,153.9,0.678,0.568,0.994*44
$GPGGA,151634.10,3913.75928423,N,09634.81294208,W,2,08,1.1,315.765,M,-30.395,M,7.0,0133*72
$GPGGA,151634.20,3913.75928419,N,09634.81294211,W,2,08,1.1,315.766,M,-30.395,M,7.2,0133*71
$GPGGA,151634.30,3913.75928414,N,09634.81294213,W,2,08,1.1,315.766,M,-30.395,M,7.2,0133*7F
$GPGGA,151634.40,3913.75928409,N,09634.81294215,W,2,08,1.1,315.766,M,-30.395,M,6.4,0133*75
$GPGGA,151634.50,3913.75928405,N,09634.81294218,W,2,08,1.1,315.766,M,-30.395,M,6.4,0133*75
$GNGST,151634.50,0.710,0.709,0.529,153.9,0.678,0.568,0.994*46
$GPGGA,151634.60,3913.75928400,N,09634.81294220,W,2,08,1.1,315.767,M,-30.395,M,6.6,0133*7B
$GPGGA,151634.70,3913.75928395,N,09634.81294222,W,2,08,1.1,315.767,M,-30.395,M,6.6,0133*73
$GPGGA,151634.80,3913.75928391,N,09634.81294225,W,2,08,1.1,315.767,M,-30.395,M,6.8,0133*71
$GPGGA,151634.90,3913.75928387,N,09634.81294227,W,2,08,1.1,315.767,M,-30.395,M,6.8,0133*75
$GPGGA,151635.00,3913.75928382,N,09634.81294229,W,2,08,1.1,315.767,M,-30.395,M,7.0,0133*7F
$GNGST,151635.00,0.698,0.709,0.529,153.9,0.678,0.568,0.994*43
$GPGGA,151635.10,3913.75928378,N,09634.81294232,W,2,08,1.1,315.768,M,-30.395,M,7.0,0133*7E
$GPGGA,151635.20,3913.75928374,N,09634.81294234,W,2,08,1.1,315.768,M,-30.395,M,7.2,0133*75
$GPGGA,151635.30,3913.75928369,N,09634.81294236,W,2,08,1.1,315.768,M,-30.395,M,7.2,0133*7A
$GPGGA,151635.40,3913.75928365,N,09634.81294238,W,2,08,1.1,315.768,M,-30.395,M,3.4,0133*7D
$GPGGA,151635.50,3913.75928361,N,09634.81294241,W,2,08,1.1,315.769,M,-30.395,M,3.4,0133*77
$GNGST,151635.50,0.726,0.709,0.529,153.9,0.678,0.568,0.994*42
$GPGGA,151635.60,3913.75928357,N,09634.81294243,W,2,08,1.1,315.769,M,-30.395,M,3.6,0133*71
$GPGGA,151635.70,3913.75928353,N,09634.81294245,W,2,08,1.1,315.769,M,-30.395,M,3.6,0133*72
$GPGGA,151635.80,3913.75928349,N,09634.81294248,W,2,08,1.1,315.769,M,-30.395,M,3.8,0133*75
$GPGGA,151635.90,3913.75928345,N,09634.81294250,W,2,08,1.1,315.770,M,-30.395,M,3.8,0133*79
$GPGGA,151636.00,3913.75928341,N,09634.81294252,W,2,08,1.1,315.770,M,-30.395,M,4.0,0133*7A
$GNGST,151636.00,0.714,0.709,0.529,153.9,0.678,0.568,0.994*45
$GPGGA,151636.10,3913.75928337,N,09634.81294254,W,2,08,1.1,315.770,M,-30.395,M,4.0,0133*7C
$GPGGA,151636.20,3913.75928333,N,09634.81294257,W,2,08,1.1,315.770,M,-30.395,M,4.2,0133*7A
$GPGGA,151636.30,3913.75928329,N,09634.81294259,W,2,08,1.1,315.770,M,-30.395,M,4.2,0133*7E
$GPGGA,151636.40,3913.75928325,N,09634.81294261,W,2,08,1.1,315.771,M,-30.395,M,4.4,0133*79
$GPGGA,151636.50,3913.75928321,N,09634.81294263,W,2,08,1.1,315.771,M,-30.395,M,4.4,0133*7E
$GNGST,151636.50,0.700,0.709,0.529,153.9,0.678,0.568,0.994*45
$GPGGA,151636.60,3913.75928317,N,09634.81294266,W,2,08,1.1,315.771,M,-30.395,M,4.6,0133*7F
$GPGGA,151636.70,3913.75928313,N,09634.81294268,W,2,08,1.1,315.771,M,-30.395,M,4.6,0133*74
$GPGGA,151636.80,3913.75928309,N,09634.81294270,W,2,08,1.1,315.772,M,-30.395,M,4.8,0133*74
$GPGGA,151636.90,3913.75928305,N,09634.81294273,W,2,08,1.1,315.772,M,-30.395,M,4.8,0133*7A
$GPGGA,151637.00,3913.75928301,N,09634.81294275,W,2,08,1.1,315.772,M,-30.395,M,5.0,0133*79
$GNGST,151637.00,0.691,0.709,0.529,153.8,0.678,0.568,0.994*49
$GPGGA,151637.10,3913.75928298,N,09634.81294277,W,2,08,1.1,315.772,M,-30.395,M,5.0,0133*7B
$GPGGA,151637.20,3913.75928294,N,09634.81294280,W,2,08,1.1,315.772,M,-30.395,M,5.2,0133*7E
$GPGGA,151637.30,3913.75928290,N,09634.81294282,W,2,08,1.1,315.773,M,-30.395,M,5.2,0133*78
$GPGGA,151637.40,3913.75928285,N,09634.81294284,W,2,08,1.1,315.773,M,-30.395,M,5.4,0133*7B
$GPGGA,151637.50,3913.75928281,N,09634.81294287,W,2,08,1.1,315.773,M,-30.395,M,5.4,0133*7D
$GNGST,151637.50,0.684,0.709,0.529,153.8,0.678,0.568,0.994*48
$GPGGA,151637.60,3913.75928277,N,09634.81294289,W,2,08,1.1,315.773,M,-30.395,M,5.6,0133*7B
$GPGGA,151637.70,3913.75928273,N,09634.81294292,W,2,08,1.1,315.774,M,-30.395,M,5.6,0133*73
$GPGGA,151637.80,3913.75928269,N,09634.81294294,W,2,08,1.1,315.774,M,-30.395,M,5.8,0133*7F
$GPGGA,151637.90,3913.75928264,N,09634.81294296,W,2,08,1.1,315.774,M,-30.395,M,5.8,0133*71
$GPGGA,151638.00,3913.75928260,N,09634.81294299,W,2,08,1.1,315.774,M,-30.395,M,6.0,0133*77
$GNGST,151638.00,0.691,0.709,0.529,153.8,0.678,0.568,0.994*46
$GPGGA,151638.10,3913.75928256,N,09634.81294301,W,2,08,1.1,315.775,M,-30.395,M,6.0,0133*72
$GPGGA,151638.20,3913.75928251,N,09634.81294304,W,2,08,1.1,315.775,M,-30.395,M,6.2,0133*71
$GPGGA,151638.30,3913.75928247,N,09634.81294306,W,2,08,1.1,315.775,M,-30.395,M,6.2,0133*75
$GPGGA,151638.40,3913.75928243,N,09634.81294308,W,2,08,1.1,315.775,M,-30.395,M,6.4,0133*7E
$GPGGA,151638.50,3913.75928238,N,09634.81294311,W,2,08,1.1,315.776,M,-30.395,M,6.4,0133*78
$GNGST,151638.50,0.692,0.709,0.529,153.8,0.678,0.568,0.994*40
$GPGGA,151638.60,3913.75928234,N,09634.81294313,W,2,08,1.1,315.776,M,-30.395,M,6.6,0133*77
$GPGGA,151638.70,3913.75928229,N,09634.81294315,W,2,08,1.1,315.776,M,-30.395,M,6.6,0133*7C
