$GPGGA,184421.30,3911.41056371,N,09635.02272175,W,2,11,0.8,330.520,M,-30.448,M,7.2,0135*77
$PTNL,AVR,184421.30,+180.4634,Yaw,-0.7626,Tilt,,,1.701,3,1.6,12*31
$GPGGA,184421.40,3911.41056445,N,09635.02272166,W,2,11,0.8,330.521,M,-30.448,M,7.4,0135*75
$PTNL,AVR,184421.40,+180.4518,Yaw,-0.6415,Tilt,,,1.702,3,1.6,12*3B
$GPGGA,184421.50,3911.41056455,N,09635.02272148,W,2,11,0.8,330.526,M,-30.448,M,7.4,0135*7E
$PTNL,AVR,184421.50,+180.3844,Yaw,-0.6182,Tilt,,,1.703,3,1.6,12*33
$GPGGA,184421.60,3911.41056472,N,09635.02272209,W,2,11,0.8,330.525,M,-30.448,M,6.6,0135*7E
$PTNL,AVR,184421.60,+180.4733,Yaw,-0.6807,Tilt,,,1.703,3,1.6,12*3C
$GPGGA,184421.70,3911.41056514,N,09635.02272058,W,2,11,0.8,330.527,M,-30.448,M,6.6,0135*7A
$PTNL,AVR,184421.70,+180.4152,Yaw,-0.7818,Tilt,,,1.709,3,1.6,12*39
$GPGGA,184421.80,3911.41056446,N,09635.02272069,W,2,11,0.8,330.531,M,-30.448,M,6.8,0135*78
$PTNL,AVR,184421.80,+180.4906,Yaw,-0.6483,Tilt,,,1.717,3,1.6,12*3F
$GPGGA,184421.90,3911.41056330,N,09635.02271844,W,2,11,0.8,330.541,M,-30.448,M,6.8,0135*7C
$PTNL,AVR,184421.90,+180.3084,Yaw,-0.4567,Tilt,,,1.723,3,1.6,12*34
$GPGGA,184422.00,3911.41056283,N,09635.02271791,W,2,11,0.8,330.550,M,-30.448,M,7.0,0135*71
$PTNL,AVR,184422.00,+180.5285,Yaw,-0.4237,Tilt,,,1.705,3,1.6,12*3D
$GPGGA,184422.10,3911.41056251,N,09635.02271586,W,2,11,0.8,330.550,M,-30.448,M,7.0,0135*7B
$PTNL,AVR,184422.10,+180.5516,Yaw,-0.2554,Tilt,,,1.734,3,1.6,12*37
$GPGGA,184422.20,3911.41056162,N,09635.02271516,W,2,11,0.8,330.553,M,-30.448,M,7.2,0135*73
$PTNL,AVR,184422.20,+180.3962,Yaw,-0.0917,Tilt,,,1.726,3,1.6,12*37
$GPGGA,184422.30,3911.41056271,N,09635.02271422,W,2,11,0.8,330.556,M,-30.448,M,7.2,0135*70
$PTNL,AVR,184422.30,+180.3017,Yaw,-0.7446,Tilt,,,1.712,3,1.6,12*34
$GPGGA,184422.40,3911.41056130,N,09635.02271804,W,2,11,0.8,330.557,M,-30.448,M,7.4,0135*7E
$PTNL,AVR,184422.40,+180.2406,Yaw,-0.2629,Tilt,,,1.730,3,1.6,12*38
$GPGGA,184422.50,3911.41056312,N,09635.02271668,W,2,11,0.8,330.552,M,-30.448,M,7.4,0135*7C
$PTNL,AVR,184422.50,+180.6772,Yaw,-0.3061,Tilt,,,1.730,3,1.6,12*36
$GPGGA,184422.60,3911.41056092,N,09635.02272459,W,2,11,0.8,330.555,M,-30.448,M,3.6,0135*76
$PTNL,AVR,184422.60,+181.1120,Yaw,+0.1309,Tilt,,,1.716,3,1.6,12*3F
$GPGGA,184422.70,3911.41055618,N,09635.02272661,W,2,11,0.8,330.572,M,-30.448,M,3.6,0135*7C
$PTNL,AVR,184422.70,+180.4121,Yaw,-0.4175,Tilt,,,1.734,3,1.6,12*31
$GPGGA,184422.80,3911.41054978,N,09635.02273328,W,2,11,0.8,330.589,M,-30.448,M,3.8,0135*78
$PTNL,AVR,184422.80,+181.9168,Yaw,+0.7795,Tilt,,,1.736,3,1.6,12*30
$GPGGA,184422.90,3911.41055278,N,09635.02272951,W,2,11,0.8,330.581,M,-30.448,M,3.8,0135*7E
$PTNL,AVR,184422.90,+180.3870,Yaw,-0.6379,Tilt,,,1.733,3,1.6,12*3E
$GPGGA,184423.00,3911.41055102,N,09635.02273249,W,2,11,0.8,330.585,M,-30.448,M,4.0,0135*70
$PTNL,AVR,184423.00,+180.5703,Yaw,-0.3954,Tilt,,,1.723,3,1.6,12*3A
$GPGGA,184423.10,3911.41054901,N,09635.02273147,W,2,11,0.8,330.599,M,-30.448,M,4.0,0135*7B
$PTNL,AVR,184423.10,+180.0112,Yaw,-0.9383,Tilt,,,1.704,3,2.3,09*3B
$GPGGA,184423.20,3911.41055099,N,09635.02273334,W,2,11,0.8,330.594,M,-30.448,M,4.2,0135*78
$PTNL,AVR,184423.20,+180.0533,Yaw,-1.0393,Tilt,,,1.703,3,2.3,09*31
$GPGGA,184423.30,3911.41055113,N,09635.02272876,W,2,11,0.8,330.595,M,-30.448,M,4.2,0135*77
$PTNL,AVR,184423.30,+180.4878,Yaw,-0.2757,Tilt,,,1.686,3,2.3,09*35
$GPGGA,184423.40,3911.41054915,N,09635.02273416,W,2,11,0.8,330.605,M,-30.448,M,4.4,0135*78
$PTNL,AVR,184423.40,+180.5435,Yaw,-0.5228,Tilt,,,1.699,3,2.3,09*32
$GPGGA,184423.50,3911.41054975,N,09635.02273165,W,2,11,0.8,330.603,M,-30.448,M,4.4,0135*78
$PTNL,AVR,184423.50,+180.5675,Yaw,-0.5941,Tilt,,,1.696,3,2.3,09*3E
$GPGGA,184423.60,3911.41054800,N,09635.02273360,W,2,11,0.8,330.597,M,-30.448,M,4.6,0135*73
$PTNL,AVR,184423.60,+180.3982,Yaw,-0.9141,Tilt,,,1.699,3,2.3,09*37
$GPGGA,184423.70,3911.41055133,N,09635.02273382,W,2,11,0.8,330.603,M,-30.448,M,4.6,0135*78
$PTNL,AVR,184423.70,+180.1870,Yaw,-0.9263,Tilt,,,1.704,3,2.3,09*3E
$GPGGA,184423.80,3911.41055184,N,09635.02273416,W,2,11,0.8,330.603,M,-30.448,M,4.8,0135*7F
$PTNL,AVR,184423.80,+180.2089,Yaw,-0.9613,Tilt,,,1.711,3,2.3,09*3B
$GPGGA,184423.90,3911.41055285,N,09635.02273537,W,2,11,0.8,330.606,M,-30.448,M,4.8,0135*7B
$PTNL,AVR,184423.90,+180.6093,Yaw,-0.5940,Tilt,,,1.704,3,2.3,09*34
$GPGGA,184424.00,3911.41055348,N,09635.02273689,W,2,11,0.8,330.608,M,-30.448,M,5.0,0135*74
$PTNL,AVR,184424.00,+180.7275,Yaw,-0.7443,Tilt,,,1.714,3,2.3,09*3C
$GPGGA,184424.10,3911.41055363,N,09635.02273792,W,2,11,0.8,330.610,M,-30.448,M,5.0,0135*7E
$PTNL,AVR,184424.10,+180.6538,Yaw,-0.8360,Tilt,,,1.710,3,1.9,10*3E
$GPGGA,184424.20,3911.41055378,N,09635.02273911,W,2,11,0.8,330.612,M,-30.448,M,5.2,0135*72
$PTNL,AVR,184424.20,+180.5100,Yaw,-0.8927,Tilt,,,1.702,3,1.9,10*3B
$GPGGA,184424.30,3911.41055361,N,09635.02274007,W,2,11,0.8,330.613,M,-30.448,M,5.2,0135*73
$PTNL,AVR,184424.30,+180.6283,Yaw,-0.6919,Tilt,,,1.711,3,1.9,10*30
$GPGGA,184424.40,3911.41055331,N,09635.02274074,W,2,11,0.8,330.615,M,-30.448,M,5.4,0135*75
$PTNL,AVR,184424.40,+180.4472,Yaw,-0.6082,Tilt,,,1.703,3,1.9,10*35
$GPGGA,184424.50,3911.41055301,N,09635.02274101,W,2,11,0.8,330.615,M,-30.448,M,5.4,0135*74
$PTNL,AVR,184424.50,+180.4985,Yaw,-0.7653,Tilt,,,1.709,3,1.9,10*30
$GPGGA,184424.60,3911.41055283,N,09635.02274071,W,2,11,0.8,330.616,M,-30.448,M,5.6,0135*7B
$PTNL,AVR,184424.60,+180.6950,Yaw,-0.8601,Tilt,,,1.708,3,1.9,10*30
$GPGGA,184424.70,3911.41055266,N,09635.02273928,W,2,11,0.8,330.616,M,-30.448,M,5.6,0135*73
$PTNL,AVR,184424.70,+180.5065,Yaw,-0.8451,Tilt,,,1.707,3,1.9,10*35
$GPGGA,184424.80,3911.41055225,N,09635.02273719,W,2,11,0.8,330.616,M,-30.448,M,5.8,0135*79
$PTNL,AVR,184424.80,+180.5332,Yaw,-0.4137,Tilt,,,1.711,3,1.9,10*35
$GPGGA,184424.90,3911.41055182,N,09635.02273470,W,2,11,0.8,330.616,M,-30.448,M,5.8,0135*7A
$PTNL,AVR,184424.90,+180.8255,Yaw,-0.6929,Tilt,,,1.718,3,1.9,10*35
$GPGGA,184425.00,3911.41055123,N,09635.02273172,W,2,11,0.8,330.615,M,-30.448,M,6.0,0135*76
$PTNL,AVR,184425.00,+181.0223,Yaw,-0.8936,Tilt,,,1.717,3,1.9,10*3A
$GPGGA,184425.10,3911.41055064,N,09635.02272789,W,2,11,0.8,330.615,M,-30.448,M,6.0,0135*76
$PTNL,AVR,184425.10,+180.9626,Yaw,-0.7370,Tilt,,,1.719,3,1.9,10*3B
$GPGGA,184425.20,3911.41055029,N,09635.02272302,W,2,11,0.8,330.615,M,-30.448,M,6.2,0135*79
$PTNL,AVR,184425.20,+181.0362,Yaw,-0.5506,Tilt,,,1.715,3,1.9,10*3C
$GPGGA,184425.30,3911.41054997,N,09635.02271696,W,2,11,0.8,330.615,M,-30.448,M,6.2,0135*7E
$PTNL,AVR,184425.30,+181.1131,Yaw,-0.7776,Tilt,,,1.722,3,1.9,10*3B
$GPGGA,184425.40,3911.41054652,N,09635.02257624,W,2,11,0.8,330.625,M,-30.448,M,6.4,0135*77
$PTNL,AVR,184425.40,+181.1018,Yaw,-0.2649,Tilt,,,1.712,3,1.9,10*3D
$GPGGA,184425.50,3911.41054853,N,09635.02269182,W,2,11,0.8,330.602,M,-30.448,M,6.4,0135*7A
$PTNL,AVR,184425.50,+181.0811,Yaw,-0.4901,Tilt,,,1.707,3,1.9,10*3D
$GPGGA,184425.60,3911.41055207,N,09635.02263089,W,2,11,0.8,330.600,M,-30.448,M,6.6,0135*73
$PTNL,AVR,184425.60,+180.9987,Yaw,-0.5781,Tilt,,,1.706,3,1.9,10*3E
$GPGGA,184425.70,3911.41055185,N,09635.02260260,W,2,11,0.8,330.592,M,-30.448,M,6.6,0135*75
$PTNL,AVR,184425.70,+181.0266,Yaw,-1.0591,Tilt,,,1.715,3,1.9,10*36
$GPGGA,184425.80,3911.41055182,N,09635.02255389,W,2,11,0.8,330.586,M,-30.448,M,6.8,0135*76
$PTNL,AVR,184425.80,+180.8255,Yaw,-1.4646,Tilt,,,1.709,3,1.9,10*30
$GPGGA,184425.90,3911.41055253,N,09635.02252633,W,2,11,0.8,330.588,M,-30.448,M,6.8,0135*75
$PTNL,AVR,184425.90,+180.8924,Yaw,-0.8023,Tilt,,,1.708,3,1.9,10*35
$GPGGA,184426.00,3911.41055442,N,09635.02248341,W,2,11,0.8,330.589,M,-30.448,M,7.0,0135*7A
$PTNL,AVR,184426.00,+181.2185,Yaw,-0.7252,Tilt,,,1.709,3,1.9,10*3D
$GPGGA,184426.10,3911.41055306,N,09635.02245661,W,2,11,0.8,330.581,M,-30.448,M,7.0,0135*7E
$PTNL,AVR,184426.10,+181.2687,Yaw,-1.1719,Tilt,,,1.714,3,1.9,10*38
$GPGGA,184426.20,3911.41055420,N,09635.02241461,W,2,11,0.8,330.585,M,-30.448,M,7.2,0135*7E
$PTNL,AVR,184426.20,+180.9941,Yaw,-0.5275,Tilt,,,1.725,3,1.9,10*3C
$GPGGA,184426.30,3911.41055588,N,09635.02238939,W,2,11,0.8,330.582,M,-30.448,M,7.2,0135*75
$PTNL,AVR,184426.30,+180.9962,Yaw,-0.7986,Tilt,,,1.710,3,1.9,10*3F
$GPGGA,184426.40,3911.41055554,N,09635.02235178,W,2,11,0.8,330.582,M,-30.448,M,7.4,0135*75
$PTNL,AVR,184426.40,+181.0561,Yaw,-0.9026,Tilt,,,1.702,3,1.9,10*31
$GPGGA,184426.50,3911.41055443,N,09635.02232504,W,2,11,0.8,330.582,M,-30.448,M,7.4,0135*7B
$PTNL,AVR,184426.50,+181.1136,Yaw,-0.7752,Tilt,,,1.716,3,1.9,10*38
$GPGGA,184426.60,3911.41055497,N,09635.02228928,W,2,11,0.8,330.581,M,-30.448,M,6.6,0135*78
$PTNL,AVR,184426.60,+181.1561,Yaw,-0.8882,Tilt,,,1.720,3,1.9,10*35
$GPGGA,184426.70,3911.41055623,N,09635.02226236,W,2,11,0.8,330.588,M,-30.448,M,6.6,0135*77
$PTNL,AVR,184426.70,+181.0624,Yaw,-0.3615,Tilt,,,1.693,3,1.9,10*35
$GPGGA,184426.80,3911.41055705,N,09635.02222381,W,2,11,0.8,330.591,M,-30.448,M,6.8,0135*72
$PTNL,AVR,184426.80,+180.8971,Yaw,-0.9895,Tilt,,,1.718,3,1.9,10*32
$GPGGA,184426.90,3911.41055970,N,09635.02219241,W,2,11,0.8,330.590,M,-30.448,M,6.8,0135*7B
$PTNL,AVR,184426.90,+181.5053,Yaw,+0.0797,Tilt,,,1.700,3,1.9,10*3D
$GPGGA,184427.00,3911.41056147,N,09635.02214773,W,2,11,0.8,330.591,M,-30.448,M,7.0,0135*7D
$PTNL,AVR,184427.00,+181.0332,Yaw,-0.6492,Tilt,,,1.707,3,1.9,10*35
$GPGGA,184427.10,3911.41056115,N,09635.02211727,W,2,11,0.8,330.579,M,-30.448,M,7.0,0135*79
$PTNL,AVR,184427.10,+181.0027,Yaw,-1.8763,Tilt,,,1.712,3,1.8,11*35
$GPGGA,184427.20,3911.41056018,N,09635.02207303,W,2,11,0.8,330.577,M,-30.448,M,7.2,0135*7F
$PTNL,AVR,184427.20,+180.9725,Yaw,-1.0835,Tilt,,,1.712,3,1.8,11*3F
$GPGGA,184427.30,3911.41056248,N,09635.02203653,W,2,11,0.8,330.583,M,-30.448,M,7.2,0135*76
$PTNL,AVR,184427.30,+180.8632,Yaw,-1.1957,Tilt,,,1.694,3,1.8,11*33
$GPGGA,184427.40,3911.41056055,N,09635.02199375,W,2,11,0.8,330.577,M,-30.448,M,7.4,0135*73
$PTNL,AVR,184427.40,+180.9966,Yaw,-1.4463,Tilt,,,1.708,3,1.8,11*30
$GPGGA,184427.50,3911.41055928,N,09635.02194558,W,2,11,0.8,330.571,M,-30.448,M,7.4,0135*70
$PTNL,AVR,184427.50,+181.1844,Yaw,-1.6497,Tilt,,,1.714,3,1.8,11*3D
$GPGGA,184427.60,3911.41055888,N,09635.02188900,W,2,11,0.8,330.573,M,-30.448,M,6.6,0135*75
$PTNL,AVR,184427.60,+180.9856,Yaw,-0.9644,Tilt,,,1.713,3,1.8,11*31
$GPGGA,184427.70,3911.41055977,N,09635.02184448,W,2,11,0.8,330.567,M,-30.448,M,6.6,0135*7D
$PTNL,AVR,184427.70,+180.7606,Yaw,-0.9456,Tilt,,,1.706,3,1.8,11*30
$GPGGA,184427.80,3911.41055910,N,09635.02178957,W,2,11,0.8,330.572,M,-30.448,M,6.8,0135*79
$PTNL,AVR,184427.80,+180.9024,Yaw,-0.7879,Tilt,,,1.716,3,1.8,11*39
$GPGGA,184427.90,3911.41055692,N,09635.02174029,W,2,11,0.8,330.570,M,-30.448,M,6.8,0135*73
$PTNL,AVR,184427.90,+180.5786,Yaw,-0.9479,Tilt,,,1.709,3,1.8,11*37
$GPGGA,184428.00,3911.41055502,N,09635.02169193,W,2,11,0.8,330.568,M,-30.448,M,7.0,0135*73
$PTNL,AVR,184428.00,+180.9444,Yaw,-0.5651,Tilt,,,1.716,3,1.8,11*3A
$GPGGA,184428.10,3911.41055602,N,09635.02163882,W,2,11,0.8,330.572,M,-30.448,M,7.0,0135*79
$PTNL,AVR,184428.10,+180.8339,Yaw,-0.4772,Tilt,,,1.724,3,1.8,11*37
$GPGGA,184428.20,3911.41055235,N,09635.02158913,W,2,11,0.8,330.568,M,-30.448,M,7.2,0135*72
$PTNL,AVR,184428.20,+181.1042,Yaw,-1.1584,Tilt,,,1.711,3,1.8,11*3A
$GPGGA,184428.30,3911.41055312,N,09635.02155955,W,2,11,0.8,330.577,M,-30.448,M,7.2,0135*76
$PTNL,AVR,184428.30,+181.4836,Yaw,-0.7247,Tilt,,,1.709,3,1.8,11*33
$GPGGA,184428.40,3911.41055196,N,09635.02153192,W,2,11,0.8,330.582,M,-30.448,M,7.4,0135*76
$PTNL,AVR,184428.40,+181.4959,Yaw,-0.0805,Tilt,,,1.710,3,1.8,11*3F
$GPGGA,184428.50,3911.41055038,N,09635.02150787,W,2,11,0.8,330.580,M,-30.448,M,7.4,0135*71
$PTNL,AVR,184428.50,+181.4068,Yaw,-0.2069,Tilt,,,1.716,3,1.8,11*33
$GPGGA,184428.60,3911.41054911,N,09635.02149992,W,2,11,0.8,330.586,M,-30.448,M,3.6,0135*73
$PTNL,AVR,184428.60,+181.9240,Yaw,-0.3665,Tilt,,,1.711,3,1.8,11*39
$GPGGA,184428.70,3911.41054918,N,09635.02146686,W,2,11,0.8,330.570,M,-30.448,M,3.6,0135*77
$PTNL,AVR,184428.70,+181.9621,Yaw,-0.8998,Tilt,,,1.716,3,1.8,11*3A
$GPGGA,184428.80,3911.41054657,N,09635.02143577,W,2,11,0.8,330.565,M,-30.448,M,3.8,0135*7E
$PTNL,AVR,184428.80,+181.9664,Yaw,-0.2449,Tilt,,,1.722,3,1.8,11*38
$GPGGA,184428.90,3911.41054554,N,09635.02140036,W,2,11,0.8,330.574,M,-30.448,M,3.8,0135*7C
$PTNL,AVR,184428.90,+182.5282,Yaw,-0.1035,Tilt,,,1.719,3,1.8,11*3E
$GPGGA,184429.00,3911.41054339,N,09635.02134575,W,2,11,0.8,330.580,M,-30.448,M,4.0,0135*7C
$PTNL,AVR,184429.00,+182.5086,Yaw,-0.1922,Tilt,,,1.714,3,1.8,11*32
$GPGGA,184429.10,3911.41054387,N,09635.02129262,W,2,11,0.8,330.588,M,-30.448,M,4.0,0135*7D
$PTNL,AVR,184429.10,+182.5023,Yaw,+0.5547,Tilt,,,1.717,3,1.6,12*3F
$GPGGA,184429.20,3911.41054374,N,09635.02123308,W,2,11,0.8,330.589,M,-30.448,M,4.2,0135*76
$PTNL,AVR,184429.20,+182.4543,Yaw,-0.2079,Tilt,,,1.713,3,1.6,12*33
$GPGGA,184429.30,3911.41054322,N,09635.02117920,W,2,11,0.8,330.611,M,-30.448,M,4.2,0135*71
$PTNL,AVR,184429.30,+182.1332,Yaw,+0.5433,Tilt,,,1.720,3,1.6,12*3C
$GPGGA,184429.40,3911.41054213,N,09635.02112044,W,2,11,0.8,330.606,M,-30.448,M,4.4,0135*7B
$PTNL,AVR,184429.40,+182.1066,Yaw,-0.3077,Tilt,,,1.712,3,1.6,12*3C
$GPGGA,184429.50,3911.41054370,N,09635.02107526,W,2,11,0.8,330.613,M,-30.448,M,4.4,0135*7F
$PTNL,AVR,184429.50,+182.2848,Yaw,+0.1867,Tilt,,,1.715,3,1.6,12*30
$GPGGA,184429.60,3911.41054044,N,09635.02103328,W,2,11,0.8,330.614,M,-30.448,M,4.6,0135*71
$PTNL,AVR,184429.60,+182.0286,Yaw,+0.3066,Tilt,,,1.723,3,1.6,12*37
$GPGGA,184429.70,3911.41054290,N,09635.02100376,W,2,11,0.8,330.615,M,-30.448,M,4.6,0135*72
$PTNL,AVR,184429.70,+182.6698,Yaw,-0.1319,Tilt,,,1.701,3,1.6,12*34
$GPGGA,184429.80,3911.41054086,N,09635.02098273,W,2,11,0.8,330.615,M,-30.448,M,4.8,0135*72
$PTNL,AVR,184429.80,+182.8634,Yaw,-0.1132,Tilt,,,1.699,3,1.6,12*38
$GPGGA,184429.90,3911.41054004,N,09635.02094028,W,2,11,0.8,330.602,M,-30.448,M,4.8,0135*7F
$PTNL,AVR,184429.90,+183.0958,Yaw,+0.0024,Tilt,,,1.713,3,1.6,12*37
$GPGGA,184430.00,3911.41053796,N,09635.02090358,W,2,11,0.8,330.606,M,-30.448,M,5.0,0135*78
$PTNL,AVR,184430.00,+183.0559,Yaw,+1.3222,Tilt,,,1.706,3,1.6,12*39
$GPGGA,184430.10,3911.41053590,N,09635.02087961,W,2,11,0.8,330.595,M,-30.448,M,5.0,0135*72
$PTNL,AVR,184430.10,+184.2146,Yaw,+0.8592,Tilt,,,1.708,3,1.6,13*3E
$GPGGA,184430.20,3911.41053209,N,09635.02084725,W,2,11,0.8,330.595,M,-30.448,M,5.2,0135*79
$PTNL,AVR,184430.20,+184.6921,Yaw,+0.7051,Tilt,,,1.704,3,1.6,13*39
$GPGGA,184430.30,3911.41052764,N,09635.02081721,W,2,11,0.8,330.595,M,-30.448,M,5.2,0135*76
$PTNL,AVR,184430.30,+185.7188,Yaw,+0.9863,Tilt,,,1.714,3,1.6,13*35
$GPGGA,184430.40,3911.41052200,N,09635.02080081,W,2,11,0.8,330.592,M,-30.448,M,5.4,0135*7B
$PTNL,AVR,184430.40,+186.7041,Yaw,+1.0380,Tilt,,,1.708,3,1.6,13*36
$GPGGA,184430.50,3911.41051891,N,09635.02076742,W,2,11,0.8,330.595,M,-30.448,M,5.4,0135*7D
$PTNL,AVR,184430.50,+187.5478,Yaw,+0.9104,Tilt,,,1.717,3,1.6,13*32
$GPGGA,184430.60,3911.41051037,N,09635.02072513,W,2,11,0.8,330.597,M,-30.448,M,5.6,0135*78
$PTNL,AVR,184430.60,+188.1315,Yaw,+1.0037,Tilt,,,1.726,3,1.6,13*3D
$GPGGA,184430.70,3911.41050623,N,09635.02067753,W,2,11,0.8,330.586,M,-30.448,M,5.6,0135*79
$PTNL,AVR,184430.70,+188.4219,Yaw,+0.7610,Tilt,,,1.712,3,1.6,13*36
$GPGGA,184430.80,3911.41049747,N,09635.02061431,W,2,11,0.8,330.580,M,-30.448,M,5.8,0135*74
$PTNL,AVR,184430.80,+188.2320,Yaw,+0.2690,Tilt,,,1.718,3,1.6,13*33
$GPGGA,184430.90,3911.41049158,N,09635.02056554,W,2,11,0.8,330.599,M,-30.448,M,5.8,0135*73
$PTNL,AVR,184430.90,+188.3452,Yaw,+1.1880,Tilt,,,1.710,3,1.6,13*34
$GPGGA,184431.00,3911.41048508,N,09635.02050619,W,2,11,0.8,330.595,M,-30.448,M,6.0,0135*70
$PTNL,AVR,184431.00,+188.8263,Yaw,-0.0739,Tilt,,,1.712,3,1.6,13*3A
$GPGGA,184431.10,3911.41047424,N,09635.02044096,W,2,11,0.8,330.586,M,-30.448,M,6.0,0135*77
$PTNL,AVR,184431.10,+188.9383,Yaw,-0.8459,Tilt,,,1.694,3,1.6,13*37
$GPGGA,184431.20,3911.41046469,N,09635.02037267,W,2,11,0.8,330.584,M,-30.448,M,6.2,0135*74
$PTNL,AVR,184431.20,+189.1312,Yaw,+0.0680,Tilt,,,1.702,3,1.6,13*33
$GPGGA,184431.30,3911.41045517,N,09635.02030815,W,2,11,0.8,330.580,M,-30.448,M,6.2,0135*72
$PTNL,AVR,184431.30,+189.3665,Yaw,-0.5890,Tilt,,,1.694,3,1.6,13*37
$GPGGA,184431.40,3911.41044214,N,09635.02023213,W,2,11,0.8,330.574,M,-30.448,M,6.4,0135*73
$PTNL,AVR,184431.40,+189.3720,Yaw,-0.3173,Tilt,,,1.693,3,1.6,13*35
$GPGGA,184431.50,3911.41043156,N,09635.02015765,W,2,11,0.8,330.566,M,-30.448,M,6.4,0135*72
$PTNL,AVR,184431.50,+189.2519,Yaw,+1.3617,Tilt,,,1.707,3,1.6,13*33
$GPGGA,184431.60,3911.41042366,N,09635.02009344,W,2,11,0.8,330.571,M,-30.448,M,6.6,0135*7F
$PTNL,AVR,184431.60,+189.4231,Yaw,+0.1150,Tilt,,,1.704,3,1.6,13*3F
$GPGGA,184431.70,3911.41041376,N,09635.02004827,W,2,11,0.8,330.566,M,-30.448,M,6.6,0135*79
$PTNL,AVR,184431.70,+188.9652,Yaw,-1.1015,Tilt,,,1.703,3,1.6,13*33
$GPGGA,184431.80,3911.41040815,N,09635.02001000,W,2,11,0.8,330.577,M,-30.448,M,6.8,0135*7F
$PTNL,AVR,184431.80,+189.1614,Yaw,+0.5139,Tilt,,,1.712,3,1.6,13*3B
$GPGGA,184431.90,3911.41040174,N,09635.01996771,W,2,11,0.8,330.574,M,-30.448,M,6.8,0135*76
$PTNL,AVR,184431.90,+189.2369,Yaw,+0.0155,Tilt,,,1.700,3,1.6,13*3A
$GPGGA,184432.00,3911.41039711,N,09635.01994319,W,2,11,0.8,330.574,M,-30.448,M,7.0,0135*76
$PTNL,AVR,184432.00,+188.7717,Yaw,+0.0328,Tilt,,,1.700,3,1.6,13*31
$GPGGA,184432.10,3911.41039095,N,09635.01990818,W,2,11,0.8,330.576,M,-30.448,M,7.0,0135*70
$PTNL,AVR,184432.10,+188.9934,Yaw,+0.0621,Tilt,,,1.714,3,1.6,13*38
$GPGGA,184432.20,3911.41038843,N,09635.01987222,W,2,11,0.8,330.577,M,-30.448,M,7.2,0135*77
$PTNL,AVR,184432.20,+189.0393,Yaw,+0.2673,Tilt,,,1.704,3,1.6,13*30
$GPGGA,184432.30,3911.41038543,N,09635.01983219,W,2,11,0.8,330.581,M,-30.448,M,7.2,0135*7E
$PTNL,AVR,184432.30,+189.0960,Yaw,+1.0730,Tilt,,,1.705,3,1.6,13*33
$GPGGA,184432.40,3911.41038222,N,09635.01979016,W,2,11,0.8,330.589,M,-30.448,M,7.4,0135*7F
$PTNL,AVR,184432.40,+189.2551,Yaw,+1.4174,Tilt,,,1.709,3,1.6,13*36
$GPGGA,184432.50,3911.41038022,N,09635.01975360,W,2,11,0.8,330.578,M,-30.448,M,7.4,0135*7C
$PTNL,AVR,184432.50,+188.6795,Yaw,+0.7787,Tilt,,,1.713,3,1.6,13*3B
$GPGGA,184432.60,3911.41037665,N,09635.01971786,W,2,11,0.8,330.572,M,-30.448,M,6.6,0135*74
$PTNL,AVR,184432.60,+188.9882,Yaw,-0.1855,Tilt,,,1.710,3,1.6,13*3D
$GPGGA,184432.70,3911.41037248,N,09635.01967095,W,2,11,0.8,330.563,M,-30.448,M,6.6,0135*7C
$PTNL,AVR,184432.70,+188.7443,Yaw,-0.3657,Tilt,,,1.716,3,1.6,13*3B
$GPGGA,184432.80,3911.41036807,N,09635.01962159,W,2,11,0.8,330.554,M,-30.448,M,6.8,0135*7D
$PTNL,AVR,184432.80,+188.9457,Yaw,+0.7749,Tilt,,,1.704,3,1.6,13*30
$GPGGA,184432.90,3911.41036474,N,09635.01956349,W,2,11,0.8,330.565,M,-30.448,M,6.8,0135*72
$PTNL,AVR,184432.90,+188.2601,Yaw,+1.3032,Tilt,,,1.703,3,1.6,13*32
$GPGGA,184433.00,3911.41036052,N,09635.01949881,W,2,11,0.8,330.569,M,-30.448,M,7.0,0135*7E
$PTNL,AVR,184433.00,+188.4494,Yaw,+1.2374,Tilt,,,1.716,3,1.6,13*36
$GPGGA,184433.10,3911.41036176,N,09635.01945307,W,2,11,0.8,330.584,M,-30.448,M,7.0,0135*72
$PTNL,AVR,184433.10,+187.8448,Yaw,+2.3530,Tilt,,,1.708,3,1.6,13*3E
$GPGGA,184433.20,3911.41035751,N,09635.01940135,W,2,11,0.8,330.578,M,-30.448,M,7.2,0135*76
$PTNL,AVR,184433.20,+187.4427,Yaw,+0.0387,Tilt,,,1.707,3,1.6,13*3C
$GPGGA,184433.30,3911.41035779,N,09635.01934845,W,2,11,0.8,330.575,M,-30.448,M,7.2,0135*7D
$PTNL,AVR,184433.30,+186.9869,Yaw,+0.6505,Tilt,,,1.702,3,1.6,13*38
$GPGGA,184433.40,3911.41035363,N,09635.01930112,W,2,11,0.8,330.572,M,-30.448,M,7.4,0135*7B
$PTNL,AVR,184433.40,+186.8353,Yaw,+1.9201,Tilt,,,1.710,3,1.6,13*32
$GPGGA,184433.50,3911.41035348,N,09635.01924549,W,2,11,0.8,330.574,M,-30.448,M,7.4,0135*7A
$PTNL,AVR,184433.50,+186.5682,Yaw,+2.0457,Tilt,,,1.692,3,1.6,13*33
$GPGGA,184433.60,3911.41034998,N,09635.01918898,W,2,11,0.8,330.580,M,-30.448,M,6.6,0135*79
$PTNL,AVR,184433.60,+186.9090,Yaw,+2.0791,Tilt,,,1.699,3,1.6,13*3B
$GPGGA,184433.70,3911.41034633,N,09635.01913768,W,2,11,0.8,330.582,M,-30.448,M,6.6,0135*7F
$PTNL,AVR,184433.70,+186.8608,Yaw,+2.5639,Tilt,,,1.696,3,1.6,13*35
$GPGGA,184433.80,3911.41034104,N,09635.01908225,W,2,12,0.8,330.582,M,-30.448,M,6.8,0135*78
$PTNL,AVR,184433.80,+186.6994,Yaw,+2.0226,Tilt,,,1.699,3,1.6,13*3E
$GPGGA,184433.90,3911.41033185,N,09635.01903168,W,2,12,0.8,330.586,M,-30.448,M,6.8,0135*72
$PTNL,AVR,184433.90,+186.6041,Yaw,+0.4844,Tilt,,,1.698,3,1.6,13*37
$GPGGA,184434.00,3911.41031994,N,09635.01898604,W,2,12,0.8,330.581,M,-30.448,M,7.0,0135*76
$PTNL,AVR,184434.00,+186.6753,Yaw,+0.9867,Tilt,,,1.706,3,1.6,13*37
$GPGGA,184434.10,3911.41031046,N,09635.01893428,W,2,12,0.8,330.588,M,-30.448,M,7.0,0135*7F
$PTNL,AVR,184434.10,+186.7211,Yaw,+1.4555,Tilt,,,1.719,3,1.6,13*3A
$GPGGA,184434.20,3911.41030075,N,09635.01888906,W,2,12,0.8,330.593,M,-30.448,M,7.2,0135*7E
$PTNL,AVR,184434.20,+187.1356,Yaw,+1.4776,Tilt,,,1.712,3,1.6,13*34
$GPGGA,184434.30,3911.41029254,N,09635.01883237,W,2,12,0.8,330.596,M,-30.448,M,7.2,0135*71
$PTNL,AVR,184434.30,+186.9369,Yaw,+2.0647,Tilt,,,1.714,3,1.6,13*32
$GPGGA,184434.40,3911.41028709,N,09635.01878593,W,2,12,0.8,330.608,M,-30.448,M,7.4,0135*75
$PTNL,AVR,184434.40,+186.9986,Yaw,+1.9404,Tilt,,,1.707,3,1.6,13*33
$GPGGA,184434.50,3911.41028124,N,09635.01873162,W,2,12,0.8,330.589,M,-30.448,M,7.4,0135*76
$PTNL,AVR,184434.50,+187.1841,Yaw,+0.6851,Tilt,,,1.707,3,1.6,13*33
$GPGGA,184434.60,3911.41026927,N,09635.01869052,W,2,12,0.8,330.571,M,-30.448,M,3.6,0135*78
$PTNL,AVR,184434.60,+187.1020,Yaw,+0.8127,Tilt,,,1.699,3,1.6,13*3F
$GPGGA,184434.70,3911.41026387,N,09635.01863336,W,2,12,0.8,330.580,M,-30.448,M,3.6,0135*7C
$PTNL,AVR,184434.70,+187.2680,Yaw,+1.7689,Tilt,,,1.710,3,1.6,13*3C
$GPGGA,184434.80,3911.41025240,N,09635.01858371,W,2,12,0.8,330.569,M,-30.448,M,3.8,0135*78
$PTNL,AVR,184434.80,+187.2163,Yaw,+1.2086,Tilt,,,1.699,3,1.6,13*35
$GPGGA,184434.90,3911.41024972,N,09635.01853091,W,2,12,0.8,330.560,M,-30.448,M,3.8,0135*7D
$PTNL,AVR,184434.90,+187.0254,Yaw,+1.4034,Tilt,,,1.705,3,1.6,13*3A
$GPGGA,184435.00,3911.41024604,N,09635.01848050,W,2,12,0.8,330.553,M,-30.448,M,4.0,0135*73
$PTNL,AVR,184435.00,+186.9092,Yaw,+1.2726,Tilt,,,1.695,3,1.6,13*38
$GPGGA,184435.10,3911.41023573,N,09635.01842609,W,2,12,0.8,330.550,M,-30.448,M,4.0,0135*75
$PTNL,AVR,184435.10,+187.0074,Yaw,+0.5987,Tilt,,,1.708,3,1.6,13*3F
$GPGGA,184435.20,3911.41023130,N,09635.01837308,W,2,12,0.8,330.537,M,-30.448,M,4.2,0135*70
$PTNL,AVR,184435.20,+186.9663,Yaw,+1.2914,Tilt,,,1.720,3,1.6,13*32
$GPGGA,184435.30,3911.41022742,N,09635.01831110,W,2,12,0.8,330.533,M,-30.448,M,4.2,0135*7A
$PTNL,AVR,184435.30,+186.5984,Yaw,+1.6523,Tilt,,,1.719,3,1.6,13*3F
$GPGGA,184435.40,3911.41022160,N,09635.01825110,W,2,12,0.8,330.528,M,-30.448,M,4.4,0135*72
$PTNL,AVR,184435.40,+186.9089,Yaw,+1.3268,Tilt,,,1.711,3,1.6,13*35
$GPGGA,184435.50,3911.41021662,N,09635.01820473,W,2,12,0.8,330.535,M,-30.448,M,4.4,0135*7C
$PTNL,AVR,184435.50,+186.7859,Yaw,+1.5450,Tilt,,,1.708,3,1.6,13*3C
$GPGGA,184435.60,3911.41021414,N,09635.01815725,W,2,12,0.8,330.530,M,-30.448,M,4.6,0135*7D
$PTNL,AVR,184435.60,+187.2153,Yaw,+0.6857,Tilt,,,1.696,3,1.6,13*37
$GPGGA,184435.70,3911.41020875,N,09635.01812047,W,2,12,0.8,330.524,M,-30.448,M,4.6,0135*77
$PTNL,AVR,184435.70,+186.7450,Yaw,+0.2614,Tilt,,,1.729,3,1.6,13*3C
$GPGGA,184435.80,3911.41020615,N,09635.01809231,W,2,12,0.8,330.519,M,-30.448,M,4.8,0135*79
$PTNL,AVR,184435.80,+186.6293,Yaw,+0.5597,Tilt,,,1.727,3,1.6,13*3A
$GPGGA,184435.90,3911.41020460,N,09635.01807269,W,2,12,0.8,330.517,M,-30.448,M,4.8,0135*75
$PTNL,AVR,184435.90,+186.5441,Yaw,+0.3301,Tilt,,,1.725,3,1.6,13*3C
$GPGGA,184436.00,3911.41020637,N,09635.01806028,W,2,12,0.8,330.514,M,-30.448,M,5.0,0135*73
$PTNL,AVR,184436.00,+186.8396,Yaw,+0.4694,Tilt,,,1.718,3,1.6,13*36
$GPGGA,184436.10,3911.41020504,N,09635.01805352,W,2,12,0.8,330.511,M,-30.448,M,5.0,0135*79
$PTNL,AVR,184436.10,+187.4116,Yaw,+0.3093,Tilt,,,1.720,3,1.6,13*3D
$GPGGA,184436.20,3911.41020815,N,09635.01805215,W,2,12,0.8,330.515,M,-30.448,M,5.2,0135*73
$PTNL,AVR,184436.20,+188.4888,Yaw,+0.1857,Tilt,,,1.725,3,1.6,13*38
$GPGGA,184436.30,3911.41020525,N,09635.01806439,W,2,12,0.8,330.519,M,-30.448,M,5.2,0135*7B
$PTNL,AVR,184436.30,+190.5484,Yaw,+0.3069,Tilt,,,1.725,3,1.6,13*36
$GPGGA,184436.40,3911.41020666,N,09635.01807997,W,2,12,0.8,330.526,M,-30.448,M,5.4,0135*7A
$PTNL,AVR,184436.40,+192.5913,Yaw,+0.1473,Tilt,,,1.728,3,1.6,13*30
$GPGGA,184436.50,3911.41020747,N,09635.01810085,W,2,12,0.8,330.526,M,-30.448,M,5.4,0135*75
$PTNL,AVR,184436.50,+194.5933,Yaw,+0.0364,Tilt,,,1.723,3,1.6,13*3E
$GPGGA,184436.60,3911.41021464,N,09635.01813274,W,2,12,0.8,330.534,M,-30.448,M,5.6,0135*7B
$PTNL,AVR,184436.60,+197.5994,Yaw,+0.5083,Tilt,,,1.712,3,1.6,13*3E
$GPGGA,184436.70,3911.41021960,N,09635.01815835,W,2,12,0.8,330.547,M,-30.448,M,5.6,0135*7E
$PTNL,AVR,184436.70,+200.2843,Yaw,+1.8330,Tilt,,,1.717,3,1.6,13*3C
$GPGGA,184436.80,3911.41022776,N,09635.01818242,W,2,12,0.8,330.551,M,-30.448,M,5.8,0135*75
$PTNL,AVR,184436.80,+202.5052,Yaw,+1.1147,Tilt,,,1.721,3,1.6,13*30
$GPGGA,184436.90,3911.41023761,N,09635.01820626,W,2,12,0.8,330.565,M,-30.448,M,5.8,0135*79
$PTNL,AVR,184436.90,+205.3815,Yaw,+1.3341,Tilt,,,1.727,3,1.6,13*3B
$GPGGA,184437.00,3911.41024899,N,09635.01822069,W,2,12,0.8,330.577,M,-30.448,M,6.0,0135*79
$PTNL,AVR,184437.00,+208.2206,Yaw,+2.2624,Tilt,,,1.706,3,1.6,13*30
$GPGGA,184437.10,3911.41025567,N,09635.01823363,W,2,12,0.8,330.587,M,-30.448,M,6.0,0135*72
$PTNL,AVR,184437.10,+209.9324,Yaw,+2.7840,Tilt,,,1.705,3,1.6,13*30
$GPGGA,184437.20,3911.41026902,N,09635.01823675,W,2,12,0.8,330.601,M,-30.448,M,6.2,0135*70
$PTNL,AVR,184437.20,+212.4004,Yaw,+2.7006,Tilt,,,1.714,3,1.6,13*3F
$GPGGA,184437.30,3911.41027951,N,09635.01825405,W,2,12,0.8,330.602,M,-30.448,M,6.2,0135*76
$PTNL,AVR,184437.30,+215.5768,Yaw,+2.6958,Tilt,,,1.702,3,1.6,13*31
$GPGGA,184437.40,3911.41029083,N,09635.01825703,W,2,12,0.8,330.612,M,-30.448,M,6.4,0135*7B
$PTNL,AVR,184437.40,+217.5466,Yaw,+3.0380,Tilt,,,1.717,3,1.6,13*35
$GPGGA,184437.50,3911.41030134,N,09635.01827452,W,2,12,0.8,330.604,M,-30.448,M,6.4,0135*7D
$PTNL,AVR,184437.50,+220.1292,Yaw,+2.4057,Tilt,,,1.717,3,1.6,13*35
$GPGGA,184437.60,3911.41032010,N,09635.01829034,W,2,12,0.8,330.604,M,-30.448,M,6.6,0135*73
$PTNL,AVR,184437.60,+224.7597,Yaw,+1.4081,Tilt,,,1.703,3,1.6,13*3B
$GPGGA,184437.70,3911.41032809,N,09635.01830914,W,2,12,0.8,330.639,M,-30.448,M,6.6,0135*7F
$PTNL,AVR,184437.70,+226.9349,Yaw,+2.8005,Tilt,,,1.710,3,1.6,13*32
$GPGGA,184437.80,3911.41033819,N,09635.01834203,W,2,12,0.8,330.641,M,-30.448,M,6.8,0135*78
$PTNL,AVR,184437.80,+229.3289,Yaw,+2.6168,Tilt,,,1.712,3,1.6,13*33
$GPGGA,184437.90,3911.41034943,N,09635.01835921,W,2,12,0.8,330.641,M,-30.448,M,6.8,0135*7A
$PTNL,AVR,184437.90,+231.6795,Yaw,+3.0478,Tilt,,,1.713,3,1.6,13*34
$GPGGA,184438.00,3911.41035762,N,09635.01838430,W,2,12,0.8,330.644,M,-30.448,M,7.0,0135*7C
$PTNL,AVR,184438.00,+234.4812,Yaw,+2.7174,Tilt,,,1.713,3,1.6,13*3A
$GPGGA,184438.10,3911.41037095,N,09635.01840620,W,2,12,0.8,330.651,M,-30.448,M,7.0,0135*78
$PTNL,AVR,184438.10,+236.8786,Yaw,+2.9951,Tilt,,,1.702,3,1.6,13*36
$GPGGA,184438.20,3911.41038165,N,09635.01843202,W,2,12,0.8,330.649,M,-30.448,M,7.2,0135*76
$PTNL,AVR,184438.20,+239.6709,Yaw,+3.0413,Tilt,,,1.708,3,1.6,13*3A
$GPGGA,184438.30,3911.41039500,N,09635.01845103,W,2,12,0.8,330.661,M,-30.448,M,7.2,0135*7F
$PTNL,AVR,184438.30,+242.2543,Yaw,+3.6109,Tilt,,,1.708,3,1.6,13*37
$GPGGA,184438.40,3911.41041418,N,09635.01846022,W,2,12,0.8,330.678,M,-30.448,M,7.4,0135*70
$PTNL,AVR,184438.40,+245.8009,Yaw,+2.9473,Tilt,,,1.700,3,1.6,13*38
$GPGGA,184438.50,3911.41043262,N,09635.01847854,W,2,12,0.8,330.693,M,-30.448,M,7.4,0135*75
$PTNL,AVR,184438.50,+249.0576,Yaw,+3.0210,Tilt,,,1.692,3,1.6,13*31
$GPGGA,184438.60,3911.41045492,N,09635.01849233,W,2,12,0.8,330.696,M,-30.448,M,6.6,0135*7A
$PTNL,AVR,184438.60,+251.9162,Yaw,+2.5718,Tilt,,,1.695,3,1.6,13*3D
$GPGGA,184438.70,3911.41046869,N,09635.01851089,W,2,12,0.8,330.687,M,-30.448,M,6.6,0135*7A
$PTNL,AVR,184438.70,+254.7234,Yaw,+1.6122,Tilt,,,1.708,3,1.6,13*3D
$GPGGA,184438.80,3911.41049291,N,09635.01852278,W,2,12,0.8,330.689,M,-30.448,M,6.8,0135*78
$PTNL,AVR,184438.80,+257.1627,Yaw,+2.0320,Tilt,,,1.712,3,1.6,13*3F
$GPGGA,184438.90,3911.41051231,N,09635.01853921,W,2,12,0.8,330.690,M,-30.448,M,6.8,0135*74
$PTNL,AVR,184438.90,+260.9492,Yaw,+1.6141,Tilt,,,1.701,3,1.6,13*3C
$GPGGA,184439.00,3911.41053786,N,09635.01854425,W,2,12,0.8,330.692,M,-30.448,M,7.0,0135*72
$PTNL,AVR,184439.00,+264.2992,Yaw,+1.7222,Tilt,,,1.701,3,1.6,13*31
$GPGGA,184439.10,3911.41056142,N,09635.01854672,W,2,12,0.8,330.719,M,-30.448,M,7.0,0135*7A
$PTNL,AVR,184439.10,+266.5510,Yaw,+2.5283,Tilt,,,1.708,3,1.6,13*30
$GPGGA,184439.20,3911.41058316,N,09635.01854263,W,2,12,0.8,330.723,M,-30.448,M,7.2,0135*7B
$PTNL,AVR,184439.20,+268.1353,Yaw,+1.9281,Tilt,,,1.699,3,1.6,13*3C
$GPGGA,184439.30,3911.41059089,N,09635.01854295,W,2,12,0.8,330.730,M,-30.448,M,7.2,0135*75
$PTNL,AVR,184439.30,+267.6551,Yaw,+2.6402,Tilt,,,1.709,3,1.6,13*38
$GPGGA,184439.40,3911.41059552,N,09635.01853427,W,2,12,0.8,330.737,M,-30.448,M,7.4,0135*78
$PTNL,AVR,184439.40,+267.0030,Yaw,+1.8927,Tilt,,,1.709,3,1.6,13*3C
$GPGGA,184439.50,3911.41059610,N,09635.01853269,W,2,12,0.8,330.734,M,-30.448,M,7.4,0135*73
$PTNL,AVR,184439.50,+267.1452,Yaw,+1.9619,Tilt,,,1.704,3,1.6,13*32
$GPGGA,184439.60,3911.41058678,N,09635.01852984,W,2,12,0.8,330.735,M,-30.448,M,6.6,0135*74
$PTNL,AVR,184439.60,+267.2546,Yaw,+2.0494,Tilt,,,1.710,3,1.6,13*3E
$GPGGA,184439.70,3911.41058489,N,09635.01852808,W,2,12,0.8,330.740,M,-30.448,M,6.6,0135*7E
$PTNL,AVR,184439.70,+267.1031,Yaw,+2.2341,Tilt,,,1.708,3,1.6,13*3D
$GPGGA,184439.80,3911.41057760,N,09635.01852782,W,2,12,0.8,330.745,M,-30.448,M,6.8,0135*7C
$PTNL,AVR,184439.80,+266.9822,Yaw,+2.3135,Tilt,,,1.709,3,1.6,13*30
$GPGGA,184439.90,3911.41057501,N,09635.01852663,W,2,12,0.8,330.747,M,-30.448,M,6.8,0135*74
$PTNL,AVR,184439.90,+266.9259,Yaw,+2.2636,Tilt,,,1.706,3,1.6,13*3D
$GPGGA,184440.00,3911.41057287,N,09635.01852535,W,2,12,0.8,330.751,M,-30.448,M,7.0,0135*74
$PTNL,AVR,184440.00,+266.7837,Yaw,+2.2365,Tilt,,,1.704,3,1.6,13*37
$GPGGA,184440.10,3911.41057047,N,09635.01852602,W,2,12,0.8,330.756,M,-30.448,M,7.0,0135*7B
$PTNL,AVR,184440.10,+266.8291,Yaw,+2.5342,Tilt,,,1.706,3,1.6,13*3F
$GPGGA,184440.20,3911.41056889,N,09635.01852621,W,2,12,0.8,330.757,M,-30.448,M,7.2,0135*71
$PTNL,AVR,184440.20,+266.8331,Yaw,+2.5690,Tilt,,,1.707,3,1.6,13*3C
$GPGGA,184440.30,3911.41056765,N,09635.01852637,W,2,12,0.8,330.760,M,-30.448,M,7.2,0135*7E
$PTNL,AVR,184440.30,+266.7525,Yaw,+2.5451,Tilt,,,1.707,3,1.6,13*3E
$GPGGA,184440.40,3911.41056600,N,09635.01852729,W,2,12,0.8,330.763,M,-30.448,M,7.4,0135*70
$PTNL,AVR,184440.40,+266.8897,Yaw,+2.5179,Tilt,,,1.706,3,1.6,13*3C
$GPGGA,184440.50,3911.41056477,N,09635.01852662,W,2,12,0.8,330.762,M,-30.448,M,7.4,0135*7C
$PTNL,AVR,184440.50,+266.7209,Yaw,+2.4472,Tilt,,,1.705,3,1.6,13*33
$GPGGA,184440.60,3911.41056373,N,09635.01852824,W,2,12,0.8,330.765,M,-30.448,M,3.6,0135*71
$PTNL,AVR,184440.60,+266.9658,Yaw,+2.3843,Tilt,,,1.706,3,1.6,13*34
$GPGGA,184440.70,3911.41056288,N,09635.01852831,W,2,12,0.8,330.765,M,-30.448,M,3.6,0135*71
$PTNL,AVR,184440.70,+266.8487,Yaw,+2.3295,Tilt,,,1.705,3,1.6,13*36
$GPGGA,184440.80,3911.41056120,N,09635.01852927,W,2,12,0.8,330.768,M,-30.448,M,3.8,0135*7A
$PTNL,AVR,184440.80,+266.8099,Yaw,+2.5625,Tilt,,,1.705,3,1.6,13*3B
$GPGGA,184440.90,3911.41056084,N,09635.01852915,W,2,12,0.8,330.770,M,-30.448,M,3.8,0135*7C
$PTNL,AVR,184440.90,+266.6921,Yaw,+2.5335,Tilt,,,1.704,3,1.6,13*3B
$GPGGA,184441.00,3911.41055918,N,09635.01853075,W,2,12,0.8,330.772,M,-30.448,M,4.0,0135*78
$PTNL,AVR,184441.00,+266.6937,Yaw,+2.6961,Tilt,,,1.707,3,1.6,13*3F
$GPGGA,184441.10,3911.41055827,N,09635.01853121,W,2,12,0.8,330.776,M,-30.448,M,4.0,0135*70
$PTNL,AVR,184441.10,+266.7946,Yaw,+3.0810,Tilt,,,1.710,3,1.6,13*3F
$GPGGA,184441.20,3911.41055541,N,09635.01853329,W,2,12,0.8,330.776,M,-30.448,M,4.2,0135*76
$PTNL,AVR,184441.20,+266.5309,Yaw,+2.8383,Tilt,,,1.708,3,1.6,13*3E
$GPGGA,184441.30,3911.41055524,N,09635.01853413,W,2,12,0.8,330.777,M,-30.448,M,4.2,0135*7B
$PTNL,AVR,184441.30,+266.4900,Yaw,+2.7995,Tilt,,,1.705,3,1.6,13*32
$GPGGA,184441.40,3911.41055217,N,09635.01853585,W,2,12,0.8,330.777,M,-30.448,M,4.4,0135*73
$PTNL,AVR,184441.40,+266.6802,Yaw,+2.8893,Tilt,,,1.703,3,1.6,13*3A
$GPGGA,184441.50,3911.41054304,N,09635.01853459,W,2,12,0.8,330.778,M,-30.448,M,4.4,0135*7F
$PTNL,AVR,184441.50,+266.6629,Yaw,+2.8745,Tilt,,,1.703,3,1.6,13*38
$GPGGA,184441.60,3911.41053423,N,09635.01853469,W,2,12,0.8,330.778,M,-30.448,M,4.6,0135*78
$PTNL,AVR,184441.60,+266.9391,Yaw,+2.9943,Tilt,,,1.701,3,1.6,13*39
$GPGGA,184441.70,3911.41052231,N,09635.01853150,W,2,12,0.8,330.779,M,-30.448,M,4.6,0135*73
$PTNL,AVR,184441.70,+267.5309,Yaw,+3.1660,Tilt,,,1.708,3,1.6,13*3A
$GPGGA,184441.80,3911.41050228,N,09635.01853255,W,2,12,0.8,330.786,M,-30.448,M,4.8,0135*7E
$PTNL,AVR,184441.80,+267.3129,Yaw,+3.5682,Tilt,,,1.712,3,1.6,13*30
$GPGGA,184441.90,3911.41049276,N,09635.01853230,W,2,12,0.8,330.779,M,-30.448,M,4.8,0135*7F
$PTNL,AVR,184441.90,+267.1995,Yaw,+3.0738,Tilt,,,1.711,3,1.6,13*3A
$GPGGA,184442.00,3911.41047833,N,09635.01853699,W,2,12,0.8,330.776,M,-30.448,M,5.0,0135*71
$PTNL,AVR,184442.00,+266.9717,Yaw,+3.2911,Tilt,,,1.708,3,1.6,13*32
$GPGGA,184442.10,3911.41047862,N,09635.01853820,W,2,12,0.8,330.779,M,-30.448,M,5.0,0135*77
$PTNL,AVR,184442.10,+267.2537,Yaw,+3.2575,Tilt,,,1.705,3,1.6,13*3A
$GPGGA,184442.20,3911.41047664,N,09635.01854570,W,2,12,0.8,330.772,M,-30.448,M,5.2,0135*7A
$PTNL,AVR,184442.20,+267.8547,Yaw,+2.7986,Tilt,,,1.701,3,1.6,13*34
$GPGGA,184442.30,3911.41046589,N,09635.01854676,W,2,12,0.8,330.768,M,-30.448,M,5.2,0135*74
$PTNL,AVR,184442.30,+268.6941,Yaw,+2.6484,Tilt,,,1.703,3,1.6,13*32
$GPGGA,184442.40,3911.41045701,N,09635.01855344,W,2,12,0.8,330.761,M,-30.448,M,5.4,0135*78
$PTNL,AVR,184442.40,+269.0094,Yaw,+2.2575,Tilt,,,1.699,3,1.6,13*3A
$GPGGA,184442.50,3911.41044972,N,09635.01855247,W,2,12,0.8,330.769,M,-30.448,M,5.4,0135*78
$PTNL,AVR,184442.50,+269.8745,Yaw,+2.8934,Tilt,,,1.699,3,1.6,13*3B
$GPGGA,184442.60,3911.41043411,N,09635.01855640,W,2,12,0.8,330.772,M,-30.448,M,5.6,0135*7F
$PTNL,AVR,184442.60,+270.4887,Yaw,+2.8312,Tilt,,,1.693,3,1.6,13*39
$GPGGA,184442.70,3911.41041915,N,09635.01855596,W,2,12,0.8,330.783,M,-30.448,M,5.6,0135*73
$PTNL,AVR,184442.70,+271.5957,Yaw,+3.6241,Tilt,,,1.693,3,1.6,13*3C
$GPGGA,184442.80,3911.41040146,N,09635.01855373,W,2,12,0.8,330.795,M,-30.448,M,5.8,0135*77
$PTNL,AVR,184442.80,+272.1135,Yaw,+4.1758,Tilt,,,1.706,3,1.6,13*38
$GPGGA,184442.90,3911.41038617,N,09635.01855562,W,2,12,0.8,330.785,M,-30.448,M,5.8,0135*7D
$PTNL,AVR,184442.90,+271.8419,Yaw,+3.9662,Tilt,,,1.692,3,1.6,13*33
$GPGGA,184443.00,3911.41036449,N,09635.01855843,W,2,12,0.8,330.780,M,-30.448,M,6.0,0135*72
$PTNL,AVR,184443.00,+272.0272,Yaw,+2.8588,Tilt,,,1.701,3,1.6,13*37
$GPGGA,184443.10,3911.41034556,N,09635.01856034,W,2,12,0.8,330.783,M,-30.448,M,6.0,0135*76
$PTNL,AVR,184443.10,+272.1938,Yaw,+2.8466,Tilt,,,1.696,3,1.7,12*3C
$GPGGA,184443.20,3911.41032414,N,09635.01856419,W,2,12,0.8,330.775,M,-30.448,M,6.2,0135*74
$PTNL,AVR,184443.20,+272.4186,Yaw,+3.3339,Tilt,,,1.698,3,1.7,12*3E
$GPGGA,184443.30,3911.41030732,N,09635.01856742,W,2,12,0.8,330.763,M,-30.448,M,6.2,0135*7A
$PTNL,AVR,184443.30,+272.6316,Yaw,+2.6427,Tilt,,,1.696,3,1.7,12*34
$GPGGA,184443.40,3911.41028658,N,09635.01856970,W,2,12,0.8,330.755,M,-30.448,M,6.4,0135*75
$PTNL,AVR,184443.40,+273.0239,Yaw,+2.0184,Tilt,,,1.693,3,1.7,12*37
$GPGGA,184443.50,3911.41027095,N,09635.01857324,W,2,12,0.8,330.766,M,-30.448,M,6.4,0135*76
$PTNL,AVR,184443.50,+273.5418,Yaw,+2.6516,Tilt,,,1.696,3,1.7,12*3A
$GPGGA,184443.60,3911.41025340,N,09635.01857782,W,2,12,0.8,330.762,M,-30.448,M,6.6,0135*72
$PTNL,AVR,184443.60,+274.2266,Yaw,+2.8311,Tilt,,,1.704,3,1.7,12*33
$GPGGA,184443.70,3911.41022919,N,09635.01858042,W,2,12,0.8,330.759,M,-30.448,M,6.6,0135*7E
$PTNL,AVR,184443.70,+275.0971,Yaw,+2.1432,Tilt,,,1.701,3,1.7,12*36
$GPGGA,184443.80,3911.41019055,N,09635.01857793,W,2,12,0.8,330.747,M,-30.448,M,6.8,0135*7D
$PTNL,AVR,184443.80,+275.9235,Yaw,+0.7978,Tilt,,,1.693,3,1.7,12*36
$GPGGA,184443.90,3911.41015628,N,09635.01858180,W,2,12,0.8,330.747,M,-30.448,M,6.8,0135*77
$PTNL,AVR,184443.90,+275.8621,Yaw,+1.0844,Tilt,,,1.688,3,1.7,12*35
$GPGGA,184444.00,3911.41010833,N,09635.01857847,W,2,12,0.8,330.737,M,-30.448,M,7.0,0135*7B
$PTNL,AVR,184444.00,+275.6794,Yaw,+2.1065,Tilt,,,1.694,3,1.7,12*3E
$GPGGA,184444.10,3911.41008157,N,09635.01858656,W,2,12,0.8,330.723,M,-30.448,M,7.0,0135*7C
$PTNL,AVR,184444.10,+277.0384,Yaw,+0.8456,Tilt,,,1.700,3,1.7,12*3D
$GPGGA,184444.20,3911.41003623,N,09635.01858484,W,2,12,0.8,330.727,M,-30.448,M,7.2,0135*7B
$PTNL,AVR,184444.20,+276.5595,Yaw,+1.6320,Tilt,,,1.708,3,1.7,12*3D
$GPGGA,184444.30,3911.40999647,N,09635.01859363,W,2,12,0.8,330.746,M,-30.448,M,7.2,0135*7B
$PTNL,AVR,184444.30,+276.6739,Yaw,+1.8518,Tilt,,,1.705,3,1.7,12*35
$GPGGA,184444.40,3911.40996215,N,09635.01860812,W,2,12,0.8,330.743,M,-30.448,M,7.4,0135*74
$PTNL,AVR,184444.40,+276.7153,Yaw,+1.1314,Tilt,,,1.713,3,1.7,12*3D
$GPGGA,184444.50,3911.40992556,N,09635.01860989,W,2,12,0.8,330.743,M,-30.448,M,7.4,0135*72
$PTNL,AVR,184444.50,+276.7438,Yaw,+1.9740,Tilt,,,1.711,3,1.7,12*3B
$GPGGA,184444.60,3911.40987054,N,09635.01861243,W,2,12,0.8,330.744,M,-30.448,M,6.6,0135*7A
$PTNL,AVR,184444.60,+277.1396,Yaw,+2.0929,Tilt,,,1.693,3,1.7,12*3C
$GPGGA,184444.70,3911.40983327,N,09635.01861758,W,2,12,0.8,330.722,M,-30.448,M,6.6,0135*77
$PTNL,AVR,184444.70,+277.3383,Yaw,+1.2622,Tilt,,,1.692,3,1.7,12*3F
$GPGGA,184444.80,3911.40980509,N,09635.01862606,W,2,12,0.8,330.707,M,-30.448,M,6.8,0135*71
$PTNL,AVR,184444.80,+276.7853,Yaw,+1.9452,Tilt,,,1.711,3,1.7,12*37
$GPGGA,184444.90,3911.40976438,N,09635.01862676,W,2,12,0.8,330.702,M,-30.448,M,6.8,0135*78
$PTNL,AVR,184444.90,+277.1873,Yaw,+1.2629,Tilt,,,1.697,3,1.7,12*39
$GPGGA,184445.00,3911.40973203,N,09635.01863415,W,2,12,0.8,330.691,M,-30.448,M,7.0,0135*7F
$PTNL,AVR,184445.00,+276.8503,Yaw,+1.8015,Tilt,,,1.697,3,1.7,12*30
$GPGGA,184445.10,3911.40969629,N,09635.01863589,W,2,12,0.8,330.692,M,-30.448,M,7.0,0135*7E
$PTNL,AVR,184445.10,+276.9792,Yaw,+2.9111,Tilt,,,1.711,3,1.7,12*32
$GPGGA,184445.20,3911.40966162,N,09635.01864638,W,2,12,0.8,330.706,M,-30.448,M,7.2,0135*7A
$PTNL,AVR,184445.20,+276.9259,Yaw,+2.7533,Tilt,,,1.714,3,1.7,12*3C
$GPGGA,184445.30,3911.40962228,N,09635.01864883,W,2,12,0.8,330.712,M,-30.448,M,7.2,0135*79
$PTNL,AVR,184445.30,+276.9731,Yaw,+2.9851,Tilt,,,1.711,3,1.7,12*34
$GPGGA,184445.40,3911.40959018,N,09635.01865320,W,2,12,0.8,330.716,M,-30.448,M,7.4,0135*76
$PTNL,AVR,184445.40,+276.7147,Yaw,+2.3363,Tilt,,,1.701,3,1.7,12*3B
$GPGGA,184445.50,3911.40955409,N,09635.01865679,W,2,12,0.8,330.722,M,-30.448,M,7.4,0135*71
$PTNL,AVR,184445.50,+276.8104,Yaw,+2.8757,Tilt,,,1.701,3,1.7,12*3A
$GPGGA,184445.60,3911.40951934,N,09635.01866913,W,2,12,0.8,330.719,M,-30.448,M,6.6,0135*7E
$PTNL,AVR,184445.60,+276.9395,Yaw,+2.1814,Tilt,,,1.710,3,1.7,12*33
$GPGGA,184445.70,3911.40948259,N,09635.01867586,W,2,12,0.8,330.723,M,-30.448,M,6.6,0135*7F
$PTNL,AVR,184445.70,+277.1603,Yaw,+2.1794,Tilt,,,1.703,3,1.7,12*34
$GPGGA,184445.80,3911.40944568,N,09635.01868858,W,2,12,0.8,330.728,M,-30.448,M,6.8,0135*7D
$PTNL,AVR,184445.80,+277.2701,Yaw,+2.6868,Tilt,,,1.702,3,1.7,12*31
$GPGGA,184445.90,3911.40940661,N,09635.01869248,W,2,12,0.8,330.724,M,-30.448,M,6.8,0135*74
$PTNL,AVR,184445.90,+277.1568,Yaw,+2.5229,Tilt,,,1.710,3,1.7,12*31
$GPGGA,184446.00,3911.40936494,N,09635.01870226,W,2,12,0.8,330.723,M,-30.448,M,7.0,0135*79
$PTNL,AVR,184446.00,+277.1299,Yaw,+3.2407,Tilt,,,1.704,3,1.7,12*3B
$GPGGA,184446.10,3911.40933287,N,09635.01870903,W,2,12,0.8,330.721,M,-30.448,M,7.0,0135*77
$PTNL,AVR,184446.10,+277.1810,Yaw,+2.8056,Tilt,,,1.704,3,1.7,12*3A
$GPGGA,184446.20,3911.40929543,N,09635.01871514,W,2,12,0.8,330.718,M,-30.448,M,7.2,0135*73
$PTNL,AVR,184446.20,+276.8856,Yaw,+3.7045,Tilt,,,1.695,3,1.7,12*36
$GPGGA,184446.30,3911.40926770,N,09635.01872332,W,2,12,0.8,330.702,M,-30.448,M,7.2,0135*75
$PTNL,AVR,184446.30,+276.8191,Yaw,+2.6872,Tilt,,,1.704,3,1.7,12*30
$GPGGA,184446.40,3911.40924288,N,09635.01872825,W,2,12,0.8,330.701,M,-30.448,M,7.4,0135*7A
$PTNL,AVR,184446.40,+276.5972,Yaw,+3.2355,Tilt,,,1.699,3,1.7,12*31
$GPGGA,184446.50,3911.40921480,N,09635.01872999,W,2,12,0.8,330.715,M,-30.448,M,7.4,0135*73
$PTNL,AVR,184446.50,+276.9108,Yaw,+4.3106,Tilt,,,1.701,3,1.7,12*3B
$GPGGA,184446.60,3911.40919635,N,09635.01873725,W,2,12,0.8,330.721,M,-30.448,M,3.6,0135*7E
$PTNL,AVR,184446.60,+276.9832,Yaw,+3.8339,Tilt,,,1.701,3,1.7,12*3A
$GPGGA,184446.70,3911.40917716,N,09635.01874125,W,2,12,0.8,330.715,M,-30.448,M,3.6,0135*77
$PTNL,AVR,184446.70,+277.2771,Yaw,+3.4071,Tilt,,,1.706,3,1.7,12*3D
$GPGGA,184446.80,3911.40915977,N,09635.01874475,W,2,12,0.8,330.716,M,-30.448,M,3.8,0135*7E
$PTNL,AVR,184446.80,+277.9072,Yaw,+3.1773,Tilt,,,1.703,3,1.7,12*38
$GPGGA,184446.90,3911.40912746,N,09635.01875098,W,2,12,0.8,330.726,M,-30.448,M,3.8,0135*71
$PTNL,AVR,184446.90,+277.5281,Yaw,+3.7856,Tilt,,,1.709,3,1.7,12*3F
$GPGGA,184447.00,3911.40909947,N,09635.01875843,W,2,12,0.8,330.714,M,-30.448,M,4.0,0135*7C
$PTNL,AVR,184447.00,+278.1567,Yaw,+2.5147,Tilt,,,1.700,3,1.7,12*30
$GPGGA,184447.10,3911.40906404,N,09635.01876670,W,2,12,0.8,330.732,M,-30.448,M,4.0,0135*71
$PTNL,AVR,184447.10,+278.5939,Yaw,+2.6337,Tilt,,,1.708,3,1.7,12*3C
$GPGGA,184447.20,3911.40902446,N,09635.01876921,W,2,12,0.8,330.732,M,-30.448,M,4.2,0135*79
$PTNL,AVR,184447.20,+278.9381,Yaw,+2.3030,Tilt,,,1.705,3,1.7,12*36
$GPGGA,184447.30,3911.40898492,N,09635.01877576,W,2,12,0.8,330.741,M,-30.448,M,4.2,0135*78
$PTNL,AVR,184447.30,+278.7090,Yaw,+2.8360,Tilt,,,1.704,3,1.7,12*36
$GPGGA,184447.40,3911.40893752,N,09635.01878542,W,2,12,0.8,330.753,M,-30.448,M,4.4,0135*76
$PTNL,AVR,184447.40,+278.5357,Yaw,+2.4931,Tilt,,,1.703,3,1.7,12*3E
$GPGGA,184447.50,3911.40889686,N,09635.01879217,W,2,12,0.8,330.756,M,-30.448,M,4.4,0135*77
$PTNL,AVR,184447.50,+278.7354,Yaw,+3.2541,Tilt,,,1.706,3,1.7,12*37
$GPGGA,184447.60,3911.40885229,N,09635.01880125,W,2,12,0.8,330.767,M,-30.448,M,4.6,0135*7D
$PTNL,AVR,184447.60,+278.6639,Yaw,+3.4443,Tilt,,,1.700,3,1.7,12*38
$GPGGA,184447.70,3911.40880499,N,09635.01880973,W,2,12,0.8,330.762,M,-30.448,M,4.6,0135*7A
$PTNL,AVR,184447.70,+278.2844,Yaw,+2.7605,Tilt,,,1.697,3,1.7,12*34
$GPGGA,184447.80,3911.40875643,N,09635.01882043,W,2,12,0.8,330.755,M,-30.448,M,4.8,0135*78
$PTNL,AVR,184447.80,+277.9203,Yaw,+3.1745,Tilt,,,1.696,3,1.7,12*35
$GPGGA,184447.90,3911.40871413,N,09635.01882813,W,2,12,0.8,330.756,M,-30.448,M,4.8,0135*74
$PTNL,AVR,184447.90,+278.4430,Yaw,+3.2986,Tilt,,,1.712,3,1.7,12*3F
$GPGGA,184448.00,3911.40866546,N,09635.01883942,W,2,12,0.8,330.744,M,-30.448,M,5.0,0135*7B
$PTNL,AVR,184448.00,+278.4117,Yaw,+2.6412,Tilt,,,1.683,3,1.7,12*35
$GPGGA,184448.10,3911.40862385,N,09635.01884327,W,2,12,0.8,330.759,M,-30.448,M,5.0,0135*75
$PTNL,AVR,184448.10,+278.1497,Yaw,+3.8111,Tilt,,,1.701,3,1.7,12*3E
$GPGGA,184448.20,3911.40858183,N,09635.01885088,W,2,12,0.8,330.759,M,-30.448,M,5.2,0135*7E
$PTNL,AVR,184448.20,+278.2061,Yaw,+3.7622,Tilt,,,1.707,3,1.7,12*3D
$GPGGA,184448.30,3911.40854178,N,09635.01885984,W,2,12,0.8,330.753,M,-30.448,M,5.2,0135*78
$PTNL,AVR,184448.30,+278.7445,Yaw,+3.3662,Tilt,,,1.713,3,1.7,12*3E
$GPGGA,184448.40,3911.40850007,N,09635.01887038,W,2,12,0.8,330.763,M,-30.448,M,5.4,0135*7B
$PTNL,AVR,184448.40,+278.6350,Yaw,+4.0472,Tilt,,,1.720,3,1.7,12*3C
$GPGGA,184448.50,3911.40845597,N,09635.01887762,W,2,12,0.8,330.752,M,-30.448,M,5.4,0135*78
$PTNL,AVR,184448.50,+278.4883,Yaw,+3.9013,Tilt,,,1.712,3,1.7,12*36
$GPGGA,184448.60,3911.40841443,N,09635.01887678,W,2,12,0.8,330.754,M,-30.448,M,5.6,0135*79
$PTNL,AVR,184448.60,+278.8658,Yaw,+3.3988,Tilt,,,1.714,3,1.7,12*36
$GPGGA,184448.70,3911.40836980,N,09635.01888434,W,2,12,0.8,330.751,M,-30.448,M,5.6,0135*7A
$PTNL,AVR,184448.70,+278.7723,Yaw,+3.9943,Tilt,,,1.710,3,1.7,12*3C
$GPGGA,184448.80,3911.40832038,N,09635.01889128,W,2,12,0.8,330.744,M,-30.448,M,5.8,0135*78
$PTNL,AVR,184448.80,+278.6966,Yaw,+4.4073,Tilt,,,1.722,3,1.7,12*3C
$GPGGA,184448.90,3911.40826930,N,09635.01890067,W,2,12,0.8,330.743,M,-30.448,M,5.8,0135*78
$PTNL,AVR,184448.90,+278.4109,Yaw,+3.8682,Tilt,,,1.701,3,1.7,12*3C
$GPGGA,184449.00,3911.40821933,N,09635.01890419,W,2,12,0.8,330.746,M,-30.448,M,6.0,0135*77
$PTNL,AVR,184449.00,+278.9775,Yaw,+3.8875,Tilt,,,1.723,3,1.7,12*32
$GPGGA,184449.10,3911.40817983,N,09635.01891182,W,2,12,0.8,330.740,M,-30.448,M,6.0,0135*78
$PTNL,AVR,184449.10,+278.4382,Yaw,+3.3856,Tilt,,,1.712,3,1.8,11*36
$GPGGA,184449.20,3911.40813174,N,09635.01892401,W,2,12,0.8,330.742,M,-30.448,M,6.2,0135*72
$PTNL,AVR,184449.20,+279.2466,Yaw,+3.7938,Tilt,,,1.702,3,1.8,11*33
$GPGGA,184449.30,3911.40807664,N,09635.01893497,W,2,12,0.8,330.749,M,-30.448,M,6.2,0135*75
$PTNL,AVR,184449.30,+278.6601,Yaw,+3.9584,Tilt,,,1.704,3,1.8,11*37
$GPGGA,184449.40,3911.40802583,N,09635.01894468,W,2,12,0.8,330.743,M,-30.448,M,6.4,0135*76
$PTNL,AVR,184449.40,+278.7200,Yaw,+2.7213,Tilt,,,1.707,3,1.8,11*31
$GPGGA,184449.50,3911.40797919,N,09635.01894992,W,2,12,0.8,330.772,M,-30.448,M,6.4,0135*71
$PTNL,AVR,184449.50,+279.0998,Yaw,+4.1248,Tilt,,,1.707,3,1.8,11*32
$GPGGA,184449.60,3911.40792241,N,09635.01896048,W,2,12,0.8,330.770,M,-30.448,M,6.6,0135*7D
$PTNL,AVR,184449.60,+278.6161,Yaw,+3.4107,Tilt,,,1.714,3,1.8,11*30
$GPGGA,184449.70,3911.40786958,N,09635.01896430,W,2,12,0.8,330.781,M,-30.448,M,6.6,0135*7F
$PTNL,AVR,184449.70,+278.8858,Yaw,+4.1365,Tilt,,,1.709,3,1.8,11*34
$GPGGA,184449.80,3911.40781463,N,09635.01897357,W,2,12,0.8,330.780,M,-30.448,M,6.8,0135*7A
$PTNL,AVR,184449.80,+278.9282,Yaw,+3.8287,Tilt,,,1.706,3,1.8,11*3B
$GPGGA,184449.90,3911.40776757,N,09635.01898165,W,2,12,0.8,330.779,M,-30.448,M,6.8,0135*7D
$PTNL,AVR,184449.90,+279.0484,Yaw,+3.4732,Tilt,,,1.708,3,1.8,11*3B
$GPGGA,184450.00,3911.40771650,N,09635.01899561,W,2,12,0.8,330.768,M,-30.448,M,7.0,0135*75
$PTNL,AVR,184450.00,+279.2255,Yaw,+3.1151,Tilt,,,1.707,3,1.8,11*3B
$GPGGA,184450.10,3911.40766489,N,09635.01899966,W,2,12,0.8,330.773,M,-30.448,M,7.0,0135*75
$PTNL,AVR,184450.10,+279.1321,Yaw,+3.9624,Tilt,,,1.714,3,1.8,11*34
$GPGGA,184450.20,3911.40761381,N,09635.01901185,W,2,12,0.8,330.773,M,-30.448,M,7.2,0135*79
$PTNL,AVR,184450.20,+279.2519,Yaw,+3.9859,Tilt,,,1.705,3,1.8,11*3D
$GPGGA,184450.30,3911.40756524,N,09635.01901898,W,2,12,0.8,330.775,M,-30.448,M,7.2,0135*76
$PTNL,AVR,184450.30,+279.1287,Yaw,+4.2667,Tilt,,,1.702,3,1.8,11*37
$GPGGA,184450.40,3911.40751186,N,09635.01902927,W,2,12,0.8,330.775,M,-30.448,M,7.4,0135*7A
$PTNL,AVR,184450.40,+278.7422,Yaw,+3.7197,Tilt,,,1.709,3,1.8,11*3F
$GPGGA,184450.50,3911.40746505,N,09635.01903978,W,2,12,0.8,330.769,M,-30.448,M,7.4,0135*74
$PTNL,AVR,184450.50,+279.2643,Yaw,+2.8599,Tilt,,,1.705,3,1.8,11*37
$GPGGA,184450.60,3911.40741202,N,09635.01905569,W,2,12,0.8,330.752,M,-30.448,M,6.6,0135*71
$PTNL,AVR,184450.60,+279.4498,Yaw,+3.2691,Tilt,,,1.702,3,1.8,11*31
$GPGGA,184450.70,3911.40736162,N,09635.01906615,W,2,12,0.8,330.747,M,-30.448,M,6.6,0135*7A
$PTNL,AVR,184450.70,+279.4502,Yaw,+2.7136,Tilt,,,1.710,3,1.8,11*3F
$GPGGA,184450.80,3911.40730899,N,09635.01908018,W,2,12,0.8,330.740,M,-30.448,M,6.8,0135*72
$PTNL,AVR,184450.80,+279.5395,Yaw,+2.9442,Tilt,,,1.708,3,1.8,11*38
$GPGGA,184450.90,3911.40726427,N,09635.01908859,W,2,12,0.8,330.726,M,-30.448,M,6.8,0135*70
$PTNL,AVR,184450.90,+279.4688,Yaw,+2.6811,Tilt,,,1.704,3,1.8,11*38
$GPGGA,184451.00,3911.40721818,N,09635.01909144,W,2,12,0.8,330.720,M,-30.448,M,7.0,0135*74
$PTNL,AVR,184451.00,+279.3403,Yaw,+1.5555,Tilt,,,1.681,3,1.8,11*37
$GPGGA,184451.10,3911.40717871,N,09635.01909547,W,2,12,0.8,330.737,M,-30.448,M,7.0,0135*7E
$PTNL,AVR,184451.10,+279.1306,Yaw,+3.5372,Tilt,,,1.710,3,1.7,12*32
$GPGGA,184451.20,3911.40714287,N,09635.01910129,W,2,12,0.8,330.737,M,-30.448,M,7.2,0135*7B
$PTNL,AVR,184451.20,+279.2071,Yaw,+3.1602,Tilt,,,1.712,3,1.7,12*35
$GPGGA,184451.30,3911.40711496,N,09635.01910601,W,2,12,0.8,330.738,M,-30.448,M,7.2,0135*7B
$PTNL,AVR,184451.30,+278.9960,Yaw,+3.0858,Tilt,,,1.716,3,1.7,12*33
$GPGGA,184451.40,3911.40709544,N,09635.01910778,W,2,12,0.8,330.741,M,-30.448,M,7.4,0135*7C
$PTNL,AVR,184451.40,+279.3830,Yaw,+3.4859,Tilt,,,1.712,3,1.7,12*3A
$GPGGA,184451.50,3911.40707942,N,09635.01911048,W,2,12,0.8,330.742,M,-30.448,M,7.4,0135*7F
$PTNL,AVR,184451.50,+279.3395,Yaw,+3.2999,Tilt,,,1.713,3,1.7,12*35
$GPGGA,184451.60,3911.40707547,N,09635.01910400,W,2,12,0.8,330.742,M,-30.448,M,6.6,0135*7F
$PTNL,AVR,184451.60,+279.2308,Yaw,+3.2706,Tilt,,,1.714,3,1.7,12*3C
$GPGGA,184451.70,3911.40706854,N,09635.01910568,W,2,12,0.8,330.740,M,-30.448,M,6.6,0135*7D
$PTNL,AVR,184451.70,+279.2545,Yaw,+3.2430,Tilt,,,1.714,3,1.7,12*34
$GPGGA,184451.80,3911.40707692,N,09635.01909160,W,2,12,0.8,330.740,M,-30.448,M,6.8,0135*7D
$PTNL,AVR,184451.80,+279.3181,Yaw,+3.2987,Tilt,,,1.711,3,1.7,12*32
$GPGGA,184451.90,3911.40708177,N,09635.01909268,W,2,12,0.8,330.746,M,-30.448,M,6.8,0135*72
$PTNL,AVR,184451.90,+279.3005,Yaw,+3.3656,Tilt,,,1.714,3,1.7,12*39
$GPGGA,184452.00,3911.40708731,N,09635.01909674,W,2,12,0.8,330.747,M,-30.448,M,7.0,0135*7D
$PTNL,AVR,184452.00,+280.2784,Yaw,+3.0005,Tilt,,,1.709,3,1.7,12*35
$GPGGA,184452.10,3911.40710574,N,09635.01909531,W,2,12,0.8,330.747,M,-30.448,M,7.0,0135*74
$PTNL,AVR,184452.10,+282.5193,Yaw,+3.0954,Tilt,,,1.703,3,1.7,12*36
$GPGGA,184452.20,3911.40712688,N,09635.01909825,W,2,12,0.8,330.757,M,-30.448,M,7.2,0135*7E
$PTNL,AVR,184452.20,+285.4440,Yaw,+3.3881,Tilt,,,1.706,3,1.7,12*37
$GPGGA,184452.30,3911.40714922,N,09635.01910157,W,2,12,0.8,330.764,M,-30.448,M,7.2,0135*72
$PTNL,AVR,184452.30,+288.3284,Yaw,+3.7509,Tilt,,,1.713,3,1.7,12*3F
$GPGGA,184452.40,3911.40717303,N,09635.01910850,W,2,12,0.8,330.774,M,-30.448,M,7.4,0135*76
$PTNL,AVR,184452.40,+291.4495,Yaw,+3.0825,Tilt,,,1.708,3,1.7,12*3F
$GPGGA,184452.50,3911.40719975,N,09635.01909575,W,2,12,0.8,330.773,M,-30.448,M,7.4,0135*77
$PTNL,AVR,184452.50,+294.4731,Yaw,+3.3596,Tilt,,,1.708,3,1.7,12*30
$GPGGA,184452.60,3911.40722710,N,09635.01909047,W,2,12,0.8,330.775,M,-30.448,M,3.6,0135*75
$PTNL,AVR,184452.60,+297.8192,Yaw,+3.0342,Tilt,,,1.710,3,1.7,12*36
$GPGGA,184452.70,3911.40725087,N,09635.01908640,W,2,12,0.8,330.770,M,-30.448,M,3.6,0135*7F
$PTNL,AVR,184452.70,+300.6732,Yaw,+2.4211,Tilt,,,1.713,3,1.7,12*3B
$GPGGA,184452.80,3911.40727772,N,09635.01906523,W,2,12,0.8,330.774,M,-30.448,M,3.8,0135*7D
$PTNL,AVR,184452.80,+303.4154,Yaw,+2.8649,Tilt,,,1.705,3,1.7,12*31
$GPGGA,184452.90,3911.40730228,N,09635.01905552,W,2,12,0.8,330.772,M,-30.448,M,3.8,0135*73
$PTNL,AVR,184452.90,+306.1599,Yaw,+2.6573,Tilt,,,1.704,3,1.7,12*30
$GPGGA,184453.00,3911.40732601,N,09635.01903927,W,2,12,0.8,330.778,M,-30.448,M,4.0,0135*7B
$PTNL,AVR,184453.00,+309.0892,Yaw,+2.1702,Tilt,,,1.713,3,1.7,12*35
$GPGGA,184453.10,3911.40734897,N,09635.01901460,W,2,12,0.8,330.761,M,-30.448,M,4.0,0135*79
$PTNL,AVR,184453.10,+312.3883,Yaw,+2.2827,Tilt,,,1.701,3,1.7,12*35
$GPGGA,184453.20,3911.40737201,N,09635.01898566,W,2,12,0.8,330.770,M,-30.448,M,4.2,0135*78
$PTNL,AVR,184453.20,+314.8496,Yaw,+2.8632,Tilt,,,1.701,3,1.7,12*33
$GPGGA,184453.30,3911.40739410,N,09635.01896874,W,2,12,0.8,330.764,M,-30.448,M,4.2,0135*74
$PTNL,AVR,184453.30,+317.6515,Yaw,+2.2216,Tilt,,,1.700,3,1.7,12*3C
$GPGGA,184453.40,3911.40741539,N,09635.01893639,W,2,12,0.8,330.768,M,-30.448,M,4.4,0135*7E
$PTNL,AVR,184453.40,+320.9841,Yaw,+2.2762,Tilt,,,1.694,3,1.7,12*36
$GPGGA,184453.50,3911.40743311,N,09635.01891186,W,2,12,0.8,330.766,M,-30.448,M,4.4,0135*7E
$PTNL,AVR,184453.50,+323.3112,Yaw,+2.2924,Tilt,,,1.693,3,1.7,12*3A
$GPGGA,184453.60,3911.40744580,N,09635.01889632,W,2,12,0.8,330.775,M,-30.448,M,4.6,0135*75
$PTNL,AVR,184453.60,+326.7303,Yaw,+2.3429,Tilt,,,1.702,3,1.7,12*32
$GPGGA,184453.70,3911.40746441,N,09635.01887841,W,2,12,0.8,330.762,M,-30.448,M,4.6,0135*78
$PTNL,AVR,184453.70,+330.0662,Yaw,+1.9568,Tilt,,,1.701,3,1.7,12*3F
$GPGGA,184453.80,3911.40746619,N,09635.01887128,W,2,12,0.8,330.768,M,-30.448,M,4.8,0135*7A
$PTNL,AVR,184453.80,+332.6789,Yaw,+1.4700,Tilt,,,1.700,3,1.7,12*30
$GPGGA,184453.90,3911.40748049,N,09635.01885014,W,2,12,0.8,330.769,M,-30.448,M,4.8,0135*7B
$PTNL,AVR,184453.90,+335.2443,Yaw,+1.4203,Tilt,,,1.701,3,1.7,12*30
$GPGGA,184454.00,3911.40748108,N,09635.01884606,W,2,12,0.8,330.781,M,-30.448,M,5.0,0135*7A
$PTNL,AVR,184454.00,+338.1703,Yaw,+1.6966,Tilt,,,1.695,3,1.7,12*31
$GPGGA,184454.10,3911.40749042,N,09635.01884056,W,2,12,0.8,330.779,M,-30.448,M,5.0,0135*71
$PTNL,AVR,184454.10,+339.3688,Yaw,+1.4101,Tilt,,,1.700,3,1.7,12*37
$GPGGA,184454.20,3911.40748487,N,09635.01884934,W,2,12,0.8,330.801,M,-30.448,M,5.2,0135*71
$PTNL,AVR,184454.20,+342.0738,Yaw,+1.9287,Tilt,,,1.699,3,1.7,12*30
$GPGGA,184454.30,3911.40749182,N,09635.01884861,W,2,12,0.8,330.807,M,-30.448,M,5.2,0135*76
$PTNL,AVR,184454.30,+344.6554,Yaw,+1.5127,Tilt,,,1.691,3,1.7,12*34
$GPGGA,184454.40,3911.40748354,N,09635.01886585,W,2,12,0.8,330.827,M,-30.448,M,5.4,0135*78
$PTNL,AVR,184454.40,+347.5909,Yaw,+1.8551,Tilt,,,1.684,3,1.7,12*3B
$GPGGA,184454.50,3911.40748917,N,09635.01888108,W,2,12,0.8,330.818,M,-30.448,M,5.4,0135*77
$PTNL,AVR,184454.50,+350.2602,Yaw,+1.4079,Tilt,,,1.696,3,1.7,12*3F
$GPGGA,184454.60,3911.40748275,N,09635.01891403,W,2,12,0.8,330.830,M,-30.448,M,5.6,0135*75
$PTNL,AVR,184454.60,+352.1330,Yaw,+1.2694,Tilt,,,1.692,3,1.7,12*3E
$GPGGA,184454.70,3911.40747997,N,09635.01893931,W,2,12,0.8,330.846,M,-30.448,M,5.6,0135*73
$PTNL,AVR,184454.70,+353.7258,Yaw,+1.7675,Tilt,,,1.682,3,1.7,12*3C
$GPGGA,184454.80,3911.40747207,N,09635.01899108,W,2,12,0.8,330.866,M,-30.448,M,5.8,0135*7A
$PTNL,AVR,184454.80,+354.6249,Yaw,+1.1938,Tilt,,,1.696,3,1.7,12*30
$GPGGA,184454.90,3911.40746935,N,09635.01904220,W,2,12,0.8,330.866,M,-30.448,M,5.8,0135*7C
$PTNL,AVR,184454.90,+355.1770,Yaw,+0.6821,Tilt,,,1.689,3,1.7,12*39
$GPGGA,184455.00,3911.40745965,N,09635.01911009,W,2,12,0.8,330.882,M,-30.448,M,6.0,0135*7E
$PTNL,AVR,184455.00,+355.9520,Yaw,+0.2229,Tilt,,,1.691,3,1.7,12*31
$GPGGA,184455.10,3911.40745601,N,09635.01917059,W,2,12,0.8,330.904,M,-30.448,M,6.0,0135*7E
$PTNL,AVR,184455.10,+356.5588,Yaw,+0.8003,Tilt,,,1.702,3,1.7,12*36
$GPGGA,184455.20,3911.40744452,N,09635.01925414,W,2,12,0.8,330.922,M,-30.448,M,6.2,0135*72
$PTNL,AVR,184455.20,+356.4233,Yaw,+1.0217,Tilt,,,1.702,3,1.7,12*3D
$GPGGA,184455.30,3911.40743918,N,09635.01932483,W,2,12,0.8,330.928,M,-30.448,M,6.2,0135*75
$PTNL,AVR,184455.30,+356.2903,Yaw,+0.6764,Tilt,,,1.698,3,1.7,12*36
$GPGGA,184455.40,3911.40742835,N,09635.01940911,W,2,12,0.8,330.946,M,-30.448,M,6.4,0135*70
$PTNL,AVR,184455.40,+356.2999,Yaw,+0.1534,Tilt,,,1.694,3,1.7,12*3E
$GPGGA,184455.50,3911.40742297,N,09635.01947975,W,2,12,0.8,330.962,M,-30.448,M,6.4,0135*70
$PTNL,AVR,184455.50,+356.5047,Yaw,+0.3520,Tilt,,,1.698,3,1.7,12*39
$GPGGA,184455.60,3911.40741439,N,09635.01955609,W,2,12,0.8,330.985,M,-30.448,M,6.6,0135*7E
$PTNL,AVR,184455.60,+356.1774,Yaw,+1.1723,Tilt,,,1.692,3,1.7,12*31
$GPGGA,184455.70,3911.40741008,N,09635.01962627,W,2,12,0.8,331.001,M,-30.448,M,6.6,0135*75
$PTNL,AVR,184455.70,+356.5704,Yaw,+1.7249,Tilt,,,1.695,3,1.7,12*3B
$GPGGA,184455.80,3911.40740121,N,09635.01969114,W,2,12,0.8,331.033,M,-30.448,M,6.8,0135*72
$PTNL,AVR,184455.80,+356.5365,Yaw,+0.8846,Tilt,,,1.696,3,1.7,12*3F
$GPGGA,184455.90,3911.40739961,N,09635.01976664,W,2,12,0.8,331.033,M,-30.448,M,6.8,0135*7F
$PTNL,AVR,184455.90,+356.5172,Yaw,-0.4315,Tilt,,,1.695,3,1.7,12*3E
$GPGGA,184456.00,3911.40739407,N,09635.01983263,W,2,12,0.8,331.048,M,-30.448,M,7.0,0135*74
$PTNL,AVR,184456.00,+356.9977,Yaw,+1.0484,Tilt,,,1.695,3,1.7,12*39
$GPGGA,184456.10,3911.40739308,N,09635.01989266,W,2,12,0.8,331.039,M,-30.448,M,7.0,0135*74
$PTNL,AVR,184456.10,+357.4264,Yaw,-0.0495,Tilt,,,1.706,3,1.6,13*31
$GPGGA,184456.20,3911.40738642,N,09635.01995659,W,2,12,0.8,331.048,M,-30.448,M,7.2,0135*7C
$PTNL,AVR,184456.20,+357.9052,Yaw,+0.8537,Tilt,,,1.711,3,1.6,13*39
$GPGGA,184456.30,3911.40738841,N,09635.02000305,W,2,12,0.8,331.042,M,-30.448,M,7.2,0135*70
$PTNL,AVR,184456.30,+359.6052,Yaw,-0.2231,Tilt,,,1.715,3,1.6,13*30
$GPGGA,184456.40,3911.40739073,N,09635.02003099,W,2,12,0.8,331.048,M,-30.448,M,7.4,0135*76
$PTNL,AVR,184456.40,+1.5504,Yaw,+0.1473,Tilt,,,1.713,3,1.6,13*3F
$GPGGA,184456.50,3911.40739158,N,09635.02007607,W,2,12,0.8,331.056,M,-30.448,M,7.4,0135*75
$PTNL,AVR,184456.50,+3.2512,Yaw,+0.3307,Tilt,,,1.712,3,1.6,13*3B
$GPGGA,184456.60,3911.40739806,N,09635.02010160,W,2,12,0.8,331.057,M,-30.448,M,6.6,0135*76
$PTNL,AVR,184456.60,+5.5471,Yaw,+0.2227,Tilt,,,1.711,3,1.6,13*3C
$GPGGA,184456.70,3911.40740036,N,09635.02013612,W,2,12,0.8,331.067,M,-30.448,M,6.6,0135*70
$PTNL,AVR,184456.70,+6.4741,Yaw,+0.1685,Tilt,,,1.706,3,1.6,13*36
$GPGGA,184456.80,3911.40740556,N,09635.02017797,W,2,12,0.8,331.080,M,-30.448,M,6.8,0135*73
$PTNL,AVR,184456.80,+6.9785,Yaw,+0.7018,Tilt,,,1.713,3,1.6,13*3C
$GPGGA,184456.90,3911.40741236,N,09635.02023055,W,2,12,0.8,331.075,M,-30.448,M,6.8,0135*76
$PTNL,AVR,184456.90,+7.4894,Yaw,-0.4470,Tilt,,,1.708,3,1.6,13*3B
$GPGGA,184457.00,3911.40741356,N,09635.02029851,W,2,12,0.8,331.086,M,-30.448,M,7.0,0135*7A
$PTNL,AVR,184457.00,+7.7766,Yaw,+0.9677,Tilt,,,1.710,3,1.6,13*35
$GPGGA,184457.10,3911.40742185,N,09635.02036978,W,2,12,0.8,331.102,M,-30.448,M,7.0,0135*7D
$PTNL,AVR,184457.10,+7.4295,Yaw,+1.0426,Tilt,,,1.709,3,1.7,12*38
$GPGGA,184457.20,3911.40742649,N,09635.02045494,W,2,12,0.8,331.104,M,-30.448,M,7.2,0135*76
$PTNL,AVR,184457.20,+7.4369,Yaw,+0.2956,Tilt,,,1.702,3,1.7,12*3B
$GPGGA,184457.30,3911.40743062,N,09635.02052600,W,2,12,0.8,331.118,M,-30.448,M,7.2,0135*7D
$PTNL,AVR,184457.30,+7.7846,Yaw,+1.6495,Tilt,,,1.709,3,1.7,12*33
$GPGGA,184457.40,3911.40743347,N,09635.02061353,W,2,12,0.8,331.125,M,-30.448,M,7.4,0135*75
$PTNL,AVR,184457.40,+7.5771,Yaw,+0.6887,Tilt,,,1.704,3,1.7,12*3E
$GPGGA,184457.50,3911.40743850,N,09635.02068170,W,2,12,0.8,331.133,M,-30.448,M,7.4,0135*74
$PTNL,AVR,184457.50,+7.7011,Yaw,+1.9491,Tilt,,,1.698,3,1.7,12*3D
$GPGGA,184457.60,3911.40744095,N,09635.02075493,W,2,12,0.8,331.138,M,-30.448,M,6.6,0135*7D
$PTNL,AVR,184457.60,+7.7589,Yaw,+0.7522,Tilt,,,1.714,3,1.7,12*39
$GPGGA,184457.70,3911.40744506,N,09635.02082596,W,2,12,0.8,331.141,M,-30.448,M,6.6,0135*71
$PTNL,AVR,184457.70,+8.0380,Yaw,+1.2114,Tilt,,,1.701,3,1.7,12*3E
$GPGGA,184457.80,3911.40744632,N,09635.02089598,W,2,12,0.8,331.144,M,-30.448,M,6.8,0135*74
$PTNL,AVR,184457.80,+7.7396,Yaw,+1.3620,Tilt,,,1.701,3,1.7,12*3F
$GPGGA,184457.90,3911.40745209,N,09635.02096889,W,2,12,0.8,331.147,M,-30.448,M,6.8,0135*78
$PTNL,AVR,184457.90,+7.6736,Yaw,+1.6124,Tilt,,,1.700,3,1.7,12*36
$GPGGA,184458.00,3911.40745508,N,09635.02105258,W,2,12,0.8,331.139,M,-30.448,M,7.0,0135*75
$PTNL,AVR,184458.00,+7.7554,Yaw,-0.3712,Tilt,,,1.713,3,1.7,12*34
$GPGGA,184458.10,3911.40745755,N,09635.02112469,W,2,12,0.8,331.148,M,-30.448,M,7.0,0135*7A
$PTNL,AVR,184458.10,+7.8431,Yaw,+0.7874,Tilt,,,1.698,3,1.7,12*37
$GPGGA,184458.20,3911.40746040,N,09635.02119996,W,2,12,0.8,331.144,M,-30.448,M,7.2,0135*71
$PTNL,AVR,184458.20,+7.6549,Yaw,+0.1790,Tilt,,,1.704,3,1.7,12*33
$GPGGA,184458.30,3911.40746602,N,09635.02127129,W,2,12,0.8,331.145,M,-30.448,M,7.2,0135*70
$PTNL,AVR,184458.30,+7.7624,Yaw,+0.4674,Tilt,,,1.710,3,1.7,12*30
$GPGGA,184458.40,3911.40746665,N,09635.02134370,W,2,12,0.8,331.161,M,-30.448,M,7.4,0135*7A
$PTNL,AVR,184458.40,+7.4630,Yaw,+1.7657,Tilt,,,1.702,3,1.7,12*31
$GPGGA,184458.50,3911.40747622,N,09635.02141277,W,2,12,0.8,331.158,M,-30.448,M,7.4,0135*77
$PTNL,AVR,184458.50,+7.1588,Yaw,-0.4837,Tilt,,,1.713,3,1.7,12*39
$GPGGA,184458.60,3911.40748081,N,09635.02148741,W,2,12,0.8,331.152,M,-30.448,M,3.6,0135*71
$PTNL,AVR,184458.60,+7.4023,Yaw,+0.4129,Tilt,,,1.706,3,1.7,12*3F
$GPGGA,184458.70,3911.40748603,N,09635.02156112,W,2,12,0.8,331.166,M,-30.448,M,3.6,0135*74
$PTNL,AVR,184458.70,+7.0710,Yaw,+1.0744,Tilt,,,1.702,3,1.7,12*31
$GPGGA,184458.80,3911.40748886,N,09635.02163260,W,2,12,0.8,331.157,M,-30.448,M,3.8,0135*74
$PTNL,AVR,184458.80,+7.2896,Yaw,+0.5991,Tilt,,,1.696,3,1.7,12*33
$GPGGA,184458.90,3911.40749877,N,09635.02170057,W,2,12,0.8,331.161,M,-30.448,M,3.8,0135*7B
$PTNL,AVR,184458.90,+6.4997,Yaw,+0.5190,Tilt,,,1.708,3,1.7,12*3A
$GPGGA,184459.00,3911.40750839,N,09635.02176233,W,2,12,0.8,331.163,M,-30.448,M,4.0,0135*7A
$PTNL,AVR,184459.00,+6.0056,Yaw,-0.6720,Tilt,,,1.712,3,1.7,12*31
$GPGGA,184459.10,3911.40751353,N,09635.02182593,W,2,12,0.8,331.170,M,-30.448,M,4.0,0135*79
$PTNL,AVR,184459.10,+5.9814,Yaw,+0.3010,Tilt,,,1.709,3,1.6,13*39
$GPGGA,184459.20,3911.40751759,N,09635.02189321,W,2,12,0.8,331.177,M,-30.448,M,4.2,0135*75
$PTNL,AVR,184459.20,+6.0229,Yaw,+0.4215,Tilt,,,1.710,3,1.6,13*3C
