$GPGGA,045102.20,3911.6401774,N,09634.4651726,W,4,13,0.8,318.766,M,-28.308,M,9.0,1015*72
$GPGGA,045102.30,3911.6401713,N,09634.4651751,W,4,13,0.8,318.749,M,-28.308,M,9.0,1015*7F
$GPGGA,045102.40,3911.6401716,N,09634.4651719,W,4,13,0.8,318.759,M,-28.308,M,9.0,1015*70
$GPGGA,045102.50,3911.6401750,N,09634.4651743,W,4,13,0.8,318.768,M,-28.308,M,9.0,1015*7E
$GPGGA,045102.60,3911.6401692,N,09634.4651735,W,4,13,0.8,318.761,M,-28.308,M,9.0,1015*7A
$GPGGA,045102.70,3911.6401734,N,09634.4651736,W,4,13,0.8,318.752,M,-28.308,M,9.0,1015*75
$GPGGA,045102.80,3911.6401729,N,09634.4651766,W,4,13,0.8,318.747,M,-28.308,M,9.0,1015*77
$GPGGA,045102.90,3911.6401743,N,09634.4651748,W,4,13,0.8,318.746,M,-28.308,M,9.0,1015*77
$GPGGA,045103.00,3911.6401735,N,09634.4651720,W,4,13,0.8,318.750,M,-28.308,M,10.0,1015*4F
$GPGGA,045103.10,3911.6401776,N,09634.4651735,W,4,13,0.8,318.756,M,-28.308,M,10.0,1015*4B
$GPGGA,045103.20,3911.6401721,N,09634.4651744,W,4,13,0.8,318.758,M,-28.308,M,10.0,1015*42
$GPGGA,045103.30,3911.6401734,N,09634.4651679,W,4,13,0.8,318.757,M,-28.308,M,10.0,1015*47
$GPGGA,045103.40,3911.6401701,N,09634.4651734,W,4,13,0.8,318.754,M,-28.308,M,10.0,1015*4D
$GPGGA,045103.50,3911.6401689,N,09634.4651742,W,4,13,0.8,318.746,M,-28.308,M,10.0,1015*4F
$GPGGA,045103.60,3911.6401584,N,09634.4651744,W,4,13,0.8,318.746,M,-28.308,M,10.0,1015*44
$GPGGA,045103.70,3911.6401675,N,09634.4651733,W,4,13,0.8,318.758,M,-28.308,M,10.0,1015*47
$GPGGA,045103.80,3911.6401638,N,09634.4651714,W,4,13,0.8,318.753,M,-28.308,M,10.0,1015*4F
$GPGGA,045103.90,3911.6401675,N,09634.4651712,W,4,13,0.8,318.758,M,-28.308,M,10.0,1015*4A
$GPGGA,045104.00,3911.6401651,N,09634.4651713,W,4,13,0.8,318.755,M,-28.308,M,11.0,1015*4F
$GPGGA,045104.10,3911.6401716,N,09634.4651736,W,4,13,0.8,318.769,M,-28.308,M,11.0,1015*44
$GPGGA,045104.20,3911.6401737,N,09634.4651744,W,4,13,0.8,318.778,M,-28.308,M,11.0,1015*41
$GPGGA,045104.30,3911.6401703,N,09634.4651694,W,4,13,0.8,318.765,M,-28.308,M,11.0,1015*47
$GPGGA,045104.40,3911.6401641,N,09634.4651724,W,4,13,0.8,318.765,M,-28.308,M,11.0,1015*4D
$GPGGA,045104.50,3911.6401644,N,09634.4651693,W,4,13,0.8,318.786,M,-28.308,M,11.0,1015*49
$GPGGA,045104.60,3911.6401701,N,09634.4651733,W,4,13,0.8,318.794,M,-28.308,M,11.0,1015*42
$GPGGA,045104.70,3911.6401717,N,09634.4651722,W,4,13,0.8,318.793,M,-28.308,M,11.0,1015*43
$GPGGA,045104.80,3911.6401743,N,09634.4651768,W,4,13,0.8,318.804,M,-28.308,M,11.0,1015*42
$GPGGA,045104.90,3911.6401711,N,09634.4651768,W,4,13,0.8,318.796,M,-28.308,M,11.0,1015*40
$GPGGA,045105.00,3911.6401690,N,09634.4651748,W,4,13,0.8,318.791,M,-28.308,M,12.0,1015*46
$GPGGA,045105.10,3911.6401709,N,09634.4651742,W,4,13,0.8,318.773,M,-28.308,M,12.0,1015*40
$GPGGA,045105.20,3911.6401679,N,09634.4651772,W,4,13,0.8,318.776,M,-28.308,M,12.0,1015*43
$GPGGA,045105.30,3911.6401672,N,09634.4651774,W,4,13,0.8,318.767,M,-28.308,M,12.0,1015*4F
$GPGGA,045105.40,3911.6401658,N,09634.4651761,W,4,13,0.8,318.766,M,-28.308,M,12.0,1015*45
$GPGGA,045105.50,3911.6401697,N,09634.4651788,W,4,13,0.8,318.781,M,-28.308,M,12.0,1015*49
$GPGGA,045105.60,3911.6401723,N,09634.4651782,W,4,13,0.8,318.782,M,-28.308,M,12.0,1015*4D
$GPGGA,045105.70,3911.6401702,N,09634.4651778,W,4,13,0.8,318.775,M,-28.308,M,12.0,1015*42
$GPGGA,045105.80,3911.6401752,N,09634.4651775,W,4,13,0.8,318.785,M,-28.308,M,12.0,1015*4A
$GPGGA,045105.90,3911.6401697,N,09634.4651760,W,4,13,0.8,318.769,M,-28.308,M,12.0,1015*45
$GPGGA,045106.00,3911.6401678,N,09634.4651744,W,4,13,0.8,318.770,M,-28.308,M,13.0,1015*41
$GPGGA,045106.10,3911.6401683,N,09634.4651773,W,4,13,0.8,318.777,M,-28.308,M,13.0,1015*47
$GPGGA,045106.20,3911.6401656,N,09634.4651765,W,4,13,0.8,318.783,M,-28.308,M,13.0,1015*40
$GPGGA,045106.30,3911.6401694,N,09634.4651746,W,4,13,0.8,318.761,M,-28.308,M,13.0,1015*42
$GPGGA,045106.40,3911.6401647,N,09634.4651723,W,4,13,0.8,318.766,M,-28.308,M,13.0,1015*4F
$GPGGA,045106.50,3911.6401671,N,09634.4651727,W,4,13,0.8,318.778,M,-28.308,M,13.0,1015*40
$GPGGA,045106.60,3911.6401685,N,09634.4651749,W,4,13,0.8,318.763,M,-28.308,M,13.0,1015*4A
$GPGGA,045106.70,3911.6401660,N,09634.4651767,W,4,13,0.8,318.773,M,-28.308,M,13.0,1015*4D
$GPGGA,045106.80,3911.6401665,N,09634.4651767,W,4,13,0.8,318.759,M,-28.308,M,13.0,1015*4F
$GPGGA,045106.90,3911.6401663,N,09634.4651753,W,4,13,0.8,318.762,M,-28.308,M,13.0,1015*47
$GPGGA,045107.00,3911.6401643,N,09634.4651773,W,4,13,0.8,318.756,M,-28.308,M,14.0,1015*4F
$GPGGA,045107.10,3911.6401703,N,09634.4651797,W,4,13,0.8,318.770,M,-28.308,M,14.0,1015*45
$GPGGA,045107.20,3911.6401656,N,09634.4651758,W,4,13,0.8,318.758,M,-28.308,M,14.0,1015*4E
$GPGGA,045107.30,3911.6401705,N,09634.4651755,W,4,13,0.8,318.771,M,-28.308,M,14.0,1015*4E
$GPGGA,045107.40,3911.6401698,N,09634.4651763,W,4,13,0.8,318.773,M,-28.308,M,14.0,1015*4B
$GPGGA,045107.50,3911.6401671,N,09634.4651767,W,4,13,0.8,318.770,M,-28.308,M,14.0,1015*4A
$GPGGA,045107.60,3911.6401719,N,09634.4651776,W,4,13,0.8,318.783,M,-28.308,M,14.0,1015*4A
$GPGGA,045107.70,3911.6401691,N,09634.4651814,W,4,13,0.8,318.784,M,-28.308,M,14.0,1015*46
$GPGGA,045107.80,3911.6401644,N,09634.4651753,W,4,13,0.8,318.767,M,-28.308,M,14.0,1015*40
$GPGGA,045107.90,3911.6401673,N,09634.4651755,W,4,13,0.8,318.767,M,-28.308,M,14.0,1015*43
$GPGGA,045108.00,3911.6401654,N,09634.4651759,W,4,13,0.8,318.768,M,-28.308,M,15.0,1015*42
$GPGGA,045108.10,3911.6401655,N,09634.4651785,W,4,13,0.8,318.768,M,-28.308,M,15.0,1015*43
$GPGGA,045108.20,3911.6401710,N,09634.4651806,W,4,13,0.8,318.777,M,-28.308,M,15.0,1015*4A
$GPGGA,045108.30,3911.6401681,N,09634.4651774,W,4,13,0.8,318.774,M,-28.308,M,15.0,1015*4B
$GPGGA,045108.40,3911.6401600,N,09634.4651817,W,4,13,0.8,318.779,M,-28.308,M,15.0,1015*42
$GPGGA,045108.50,3911.6401658,N,09634.4651809,W,4,13,0.8,318.781,M,-28.308,M,15.0,1015*46
$GPGGA,045108.60,3911.6401686,N,09634.4651812,W,4,13,0.8,318.786,M,-28.308,M,15.0,1015*4B
$GPGGA,045108.70,3911.6401345,N,09634.4651761,W,4,13,0.8,318.725,M,-28.308,M,15.0,1015*42
$GPGGA,045108.80,3911.6401703,N,09634.4651867,W,4,12,0.9,318.787,M,-28.308,M,15.0,1015*4A
$GPGGA,045108.90,3911.6401734,N,09634.4651824,W,4,12,0.9,318.784,M,-28.308,M,15.0,1015*4B
$GPGGA,045109.00,3911.6401720,N,09634.4651855,W,4,12,0.9,318.782,M,-28.308,M,16.0,1015*45
$GPGGA,045109.10,3911.6401718,N,09634.4651806,W,4,12,0.9,318.786,M,-28.308,M,16.0,1015*4D
$GPGGA,045109.20,3911.6401687,N,09634.4651817,W,4,12,0.9,318.780,M,-28.308,M,16.0,1015*4F
$GPGGA,045109.30,3911.6401707,N,09634.4651814,W,4,12,0.9,318.782,M,-28.308,M,16.0,1015*46
$GPGGA,045109.40,3911.6401683,N,09634.4651802,W,4,12,0.9,318.792,M,-28.308,M,16.0,1015*4A
$GPGGA,045109.50,3911.6401701,N,09634.4651822,W,4,12,0.9,318.790,M,-28.308,M,16.0,1015*40
$GPGGA,045109.60,3911.6401682,N,09634.4651830,W,4,12,0.9,318.788,M,-28.308,M,16.0,1015*43
$GPGGA,045109.70,3911.6401677,N,09634.4651794,W,4,12,0.9,318.782,M,-28.308,M,16.0,1015*43
$GPGGA,045109.80,3911.6401650,N,09634.4651815,W,4,12,0.9,318.789,M,-28.308,M,16.0,1015*44
$GPGGA,045109.90,3911.6401677,N,09634.4651838,W,4,12,0.9,318.786,M,-28.308,M,16.0,1015*40
$GPGGA,045110.00,3911.6401668,N,09634.4651817,W,4,12,0.9,318.788,M,-28.308,M,17.0,1015*4D
$GPGGA,045110.10,3911.6401686,N,09634.4651818,W,4,12,0.9,318.787,M,-28.308,M,17.0,1015*4C
$GPGGA,045110.20,3911.6401678,N,09634.4651816,W,4,12,0.9,318.786,M,-28.308,M,17.0,1015*41
$GPGGA,045110.30,3911.6401692,N,09634.4651832,W,4,12,0.9,318.785,M,-28.308,M,17.0,1015*41
$GPGGA,045110.40,3911.6401683,N,09634.4651810,W,4,12,0.9,318.782,M,-28.308,M,17.0,1015*41
$GPGGA,045110.50,3911.6401681,N,09634.4651803,W,4,12,0.9,318.782,M,-28.308,M,17.0,1015*40
$GPGGA,045110.60,3911.6401650,N,09634.4651861,W,4,12,0.9,318.789,M,-28.308,M,17.0,1015*40
$GPGGA,045110.70,3911.6401636,N,09634.4651864,W,4,12,0.9,318.791,M,-28.308,M,17.0,1015*4D
$GPGGA,045110.80,3911.6401651,N,09634.4651820,W,4,12,0.9,318.784,M,-28.308,M,17.0,1015*47
$GPGGA,045110.90,3911.6401635,N,09634.4651858,W,4,12,0.9,318.785,M,-28.308,M,17.0,1015*4A
$GPGGA,045111.00,3911.6401656,N,09634.4651845,W,4,12,0.9,318.791,M,-28.308,M,18.0,1015*41
$GPGGA,045111.10,3911.6401655,N,09634.4651844,W,4,13,0.8,318.791,M,-28.308,M,18.0,1015*42
$GPGGA,045111.20,3911.6401664,N,09634.4651876,W,4,13,0.8,318.785,M,-28.308,M,18.0,1015*47
$GPGGA,045111.30,3911.6401654,N,09634.4651850,W,4,13,0.8,318.790,M,-28.308,M,18.0,1015*45
$GPGGA,045111.40,3911.6401645,N,09634.4651829,W,4,13,0.8,318.790,M,-28.308,M,18.0,1015*4C
$GPGGA,045111.50,3911.6401638,N,09634.4651840,W,4,13,0.8,318.793,M,-28.308,M,18.0,1015*4B
$GPGGA,045111.60,3911.6401654,N,09634.4651874,W,4,13,0.8,318.805,M,-28.308,M,18.0,1015*45
$GPGGA,045111.70,3911.6401614,N,09634.4651871,W,4,13,0.8,318.802,M,-28.308,M,18.0,1015*42
$GPGGA,045111.80,3911.6401630,N,09634.4651879,W,4,13,0.8,318.798,M,-28.308,M,18.0,1015*4F
$GPGGA,045111.90,3911.6401634,N,09634.4651891,W,4,13,0.8,318.813,M,-28.308,M,18.0,1015*40
$GPGGA,045112.00,3911.6401636,N,09634.4651891,W,4,13,0.8,318.813,M,-28.308,M,19.0,1015*49
$GPGGA,045112.10,3911.6401637,N,09634.4651885,W,4,13,0.8,318.796,M,-28.308,M,19.0,1015*4E
$GPGGA,045112.20,3911.6401646,N,09634.4651886,W,4,13,0.8,318.799,M,-28.308,M,19.0,1015*47
$GPGGA,045112.30,3911.6401645,N,09634.4651896,W,4,13,0.8,318.801,M,-28.308,M,19.0,1015*4A
$GPGGA,045112.40,3911.6401645,N,09634.4651887,W,4,13,0.8,318.793,M,-28.308,M,19.0,1015*49
$GPGGA,045112.50,3911.6401620,N,09634.4651909,W,4,13,0.8,318.793,M,-28.308,M,19.0,1015*4C
$GPGGA,045112.60,3911.6401635,N,09634.4651885,W,4,13,0.8,318.790,M,-28.308,M,19.0,1015*4D
$GPGGA,045112.70,3911.6401624,N,09634.4651904,W,4,13,0.8,318.795,M,-28.308,M,19.0,1015*41
$GPGGA,045112.80,3911.6401644,N,09634.4651901,W,4,13,0.8,318.792,M,-28.308,M,19.0,1015*4A
$GPGGA,045112.90,3911.6401668,N,09634.4651860,W,4,13,0.8,318.797,M,-28.308,M,19.0,1015*46
$GPGGA,045113.00,3911.6401628,N,09634.4651868,W,4,13,0.8,318.794,M,-28.308,M,20.0,1015*4B
$GPGGA,045113.10,3911.6401596,N,09634.4651841,W,4,13,0.8,318.786,M,-28.308,M,20.0,1015*44
$GPGGA,045113.20,3911.6401601,N,09634.4651881,W,4,13,0.8,318.795,M,-28.308,M,20.0,1015*44
$GPGGA,045113.30,3911.6401575,N,09634.4651847,W,4,13,0.8,318.786,M,-28.308,M,20.0,1015*4D
$GPGGA,045113.40,3911.6401630,N,09634.4651856,W,4,13,0.8,318.795,M,-28.308,M,20.0,1015*4A
$GPGGA,045113.50,3911.6401676,N,09634.4651867,W,4,13,0.8,318.810,M,-28.308,M,20.0,1015*49
$GPGGA,045113.60,3911.6401641,N,09634.4651834,W,4,13,0.8,318.787,M,-28.308,M,20.0,1015*49
$GPGGA,045113.70,3911.6401651,N,09634.4651862,W,4,13,0.8,318.801,M,-28.308,M,20.0,1015*4B
$GPGGA,045113.80,3911.6401615,N,09634.4651851,W,4,13,0.8,318.787,M,-28.308,M,20.0,1015*45
$GPGGA,045113.90,3911.6401639,N,09634.4651898,W,4,13,0.8,318.808,M,-28.308,M,20.0,1015*47
$GPGGA,045114.00,3911.6401637,N,09634.4651926,W,4,13,0.8,318.799,M,-28.308,M,11.0,1015*46
$GPGGA,045114.10,3911.6401637,N,09634.4651903,W,4,13,0.8,318.798,M,-28.308,M,11.0,1015*41
$GPGGA,045114.20,3911.6401622,N,09634.4651933,W,4,13,0.8,318.796,M,-28.308,M,11.0,1015*4B
$GPGGA,045114.30,3911.6401631,N,09634.4651899,W,4,13,0.8,318.795,M,-28.308,M,11.0,1015*4A
$GPGGA,045114.40,3911.6401674,N,09634.4651949,W,4,13,0.8,318.814,M,-28.308,M,11.0,1015*46
$GPGGA,045114.50,3911.6401655,N,09634.4651940,W,4,13,0.8,318.806,M,-28.308,M,11.0,1015*4E
$GPGGA,045114.60,3911.6401635,N,09634.4651938,W,4,13,0.8,318.805,M,-28.308,M,11.0,1015*47
$GPGGA,045114.70,3911.6401621,N,09634.4651918,W,4,13,0.8,318.801,M,-28.308,M,11.0,1015*45
$GPGGA,045114.80,3911.6401615,N,09634.4651947,W,4,13,0.8,318.806,M,-28.308,M,11.0,1015*40
$GPGGA,045114.90,3911.6401608,N,09634.4651941,W,4,13,0.8,318.802,M,-28.308,M,11.0,1015*4F
$GPGGA,045115.00,3911.6401618,N,09634.4651909,W,4,13,0.8,318.806,M,-28.308,M,12.0,1015*4D
$GPGGA,045115.10,3911.6401651,N,09634.4651932,W,4,13,0.8,318.804,M,-28.308,M,12.0,1015*4B
$GPGGA,045115.20,3911.6401592,N,09634.4651948,W,4,13,0.8,318.807,M,-28.308,M,12.0,1015*4A
$GPGGA,045115.30,3911.6401609,N,09634.4651910,W,4,13,0.8,318.809,M,-28.308,M,12.0,1015*49
$GPGGA,045115.40,3911.6401639,N,09634.4651943,W,4,13,0.8,318.817,M,-28.308,M,12.0,1015*44
$GPGGA,045115.50,3911.6401595,N,09634.4651884,W,4,13,0.8,318.802,M,-28.308,M,12.0,1015*4E
$GPGGA,045115.60,3911.6401583,N,09634.4651929,W,4,13,0.8,318.805,M,-28.308,M,12.0,1015*4B
$GPGGA,045115.70,3911.6401618,N,09634.4651939,W,4,13,0.8,318.802,M,-28.308,M,12.0,1015*4D
$GPGGA,045115.80,3911.6401615,N,09634.4651894,W,4,13,0.8,318.809,M,-28.308,M,12.0,1015*42
$GPGGA,045115.90,3911.6401602,N,09634.4651919,W,4,13,0.8,318.797,M,-28.308,M,12.0,1015*49
$GPGGA,045116.00,3911.6401611,N,09634.4651876,W,4,13,0.8,318.789,M,-28.308,M,13.0,1015*47
$GPGGA,045116.10,3911.6401636,N,09634.4651944,W,4,13,0.8,318.811,M,-28.308,M,13.0,1015*4D
$GPGGA,045116.20,3911.6401626,N,09634.4651934,W,4,13,0.8,318.807,M,-28.308,M,13.0,1015*4F
$GPGGA,045116.30,3911.6401648,N,09634.4651925,W,4,13,0.8,318.806,M,-28.308,M,13.0,1015*47
$GPGGA,045116.40,3911.6401624,N,09634.4651904,W,4,13,0.8,318.817,M,-28.308,M,13.0,1015*49
$GPGGA,045116.50,3911.6401614,N,09634.4651852,W,4,13,0.8,318.801,M,-28.308,M,13.0,1015*4E
$GPGGA,045116.60,3911.6401685,N,09634.4651870,W,4,13,0.8,318.796,M,-28.308,M,13.0,1015*44
$GPGGA,045116.70,3911.6401619,N,09634.4651904,W,4,13,0.8,318.803,M,-28.308,M,13.0,1015*41
$GPGGA,045116.80,3911.6401621,N,09634.4651874,W,4,13,0.8,318.811,M,-28.308,M,13.0,1015*40
$GPGGA,045116.90,3911.6401612,N,09634.4651891,W,4,13,0.8,318.809,M,-28.308,M,13.0,1015*43
$GPGGA,045117.00,3911.6401648,N,09634.4651924,W,4,13,0.8,318.806,M,-28.308,M,14.0,1015*43
$GPGGA,045117.10,3911.6401648,N,09634.4651870,W,4,13,0.8,318.811,M,-28.308,M,14.0,1015*44
$GPGGA,045117.20,3911.6401639,N,09634.4651872,W,4,13,0.8,318.806,M,-28.308,M,14.0,1015*45
$GPGGA,045117.30,3911.6401612,N,09634.4651852,W,4,13,0.8,318.789,M,-28.308,M,14.0,1015*47
$GPGGA,045117.40,3911.6401655,N,09634.4651875,W,4,13,0.8,318.803,M,-28.308,M,14.0,1015*4B
$GPGGA,045117.50,3911.6401594,N,09634.4651857,W,4,13,0.8,318.785,M,-28.308,M,14.0,1015*45
$GPGGA,045117.60,3911.6401626,N,09634.4651879,W,4,13,0.8,318.795,M,-28.308,M,14.0,1015*41
$GPGGA,045117.70,3911.6401621,N,09634.4651912,W,4,13,0.8,318.798,M,-28.308,M,14.0,1015*46
$GPGGA,045117.80,3911.6401584,N,09634.4651934,W,4,13,0.8,318.790,M,-28.308,M,14.0,1015*49
$GPGGA,045117.90,3911.6401615,N,09634.4651871,W,4,13,0.8,318.790,M,-28.308,M,14.0,1015*43
$GPGGA,045118.00,3911.6401639,N,09634.4651921,W,4,13,0.8,318.809,M,-28.308,M,15.0,1015*41
$GPGGA,045118.10,3911.6401581,N,09634.4651871,W,4,13,0.8,318.794,M,-28.308,M,15.0,1015*4F
$GPGGA,045118.20,3911.6401669,N,09634.4651907,W,4,13,0.8,318.820,M,-28.308,M,15.0,1015*49
$GPGGA,045118.30,3911.6401639,N,09634.4651873,W,4,13,0.8,318.798,M,-28.308,M,15.0,1015*43
$GPGGA,045118.40,3911.6401673,N,09634.4651894,W,4,13,0.8,318.812,M,-28.308,M,15.0,1015*4E
$GPGGA,045118.50,3911.6401650,N,09634.4651888,W,4,13,0.8,318.811,M,-28.308,M,15.0,1015*40
$GPGGA,045118.60,3911.6401654,N,09634.4651885,W,4,13,0.8,318.807,M,-28.308,M,15.0,1015*4D
$GPGGA,045118.70,3911.6401675,N,09634.4651894,W,4,13,0.8,318.810,M,-28.308,M,15.0,1015*49
$GPGGA,045118.80,3911.6401661,N,09634.4651883,W,4,13,0.8,318.811,M,-28.308,M,15.0,1015*44
$GPGGA,045118.90,3911.6401691,N,09634.4651880,W,4,13,0.8,318.802,M,-28.308,M,15.0,1015*4B
$GPGGA,045119.00,3911.6401650,N,09634.4651905,W,4,13,0.8,318.796,M,-28.308,M,16.0,1015*43
$GPGGA,045119.10,3911.6401613,N,09634.4651859,W,4,13,0.8,318.793,M,-28.308,M,16.0,1015*48
$GPGGA,045119.20,3911.6401649,N,09634.4651881,W,4,13,0.8,318.814,M,-28.308,M,16.0,1015*41
$GPGGA,045119.30,3911.6401659,N,09634.4651889,W,4,13,0.8,318.816,M,-28.308,M,16.0,1015*4B
$GPGGA,045119.40,3911.6401668,N,09634.4651906,W,4,13,0.8,318.812,M,-28.308,M,16.0,1015*4C
$GPGGA,045119.50,3911.6401688,N,09634.4651888,W,4,13,0.8,318.803,M,-28.308,M,16.0,1015*44
$GPGGA,045119.60,3911.6401711,N,09634.4651886,W,4,13,0.8,318.820,M,-28.308,M,16.0,1015*49
$GPGGA,045119.70,3911.6401691,N,09634.4651890,W,4,13,0.8,318.812,M,-28.308,M,16.0,1015*47
$GPGGA,045119.80,3911.6401662,N,09634.4651919,W,4,13,0.8,318.816,M,-28.308,M,16.0,1015*40
$GPGGA,045119.90,3911.6401688,N,09634.4651884,W,4,13,0.8,318.814,M,-28.308,M,16.0,1015*42
$GPGGA,045120.00,3911.6401687,N,09634.4651904,W,4,13,0.8,318.815,M,-28.308,M,17.0,1015*47
$GPGGA,045120.10,3911.6401650,N,09634.4651879,W,4,13,0.8,318.806,M,-28.308,M,17.0,1015*45
$GPGGA,045120.20,3911.6401675,N,09634.4651890,W,4,13,0.8,318.813,M,-28.308,M,17.0,1015*42
$GPGGA,045120.30,3911.6401665,N,09634.4651889,W,4,13,0.8,318.814,M,-28.308,M,17.0,1015*4D
$GPGGA,045120.40,3911.6401667,N,09634.4651875,W,4,13,0.8,318.831,M,-28.308,M,17.0,1015*4C
$GPGGA,045120.50,3911.6401627,N,09634.4651881,W,4,13,0.8,318.806,M,-28.308,M,17.0,1015*46
$GPGGA,045120.60,3911.6401710,N,09634.4651898,W,4,13,0.8,318.829,M,-28.308,M,17.0,1015*45
$GPGGA,045120.70,3911.6401685,N,09634.4651866,W,4,13,0.8,318.807,M,-28.308,M,17.0,1015*44
$GPGGA,045120.80,3911.6401674,N,09634.4651893,W,4,13,0.8,318.816,M,-28.308,M,17.0,1015*4F
$GPGGA,045120.90,3911.6401690,N,09634.4651892,W,4,13,0.8,318.824,M,-28.308,M,17.0,1015*44
$GPGGA,045121.00,3911.6401654,N,09634.4651877,W,4,13,0.8,318.817,M,-28.308,M,18.0,1015*40
$GPGGA,045121.10,3911.6401682,N,09634.4651845,W,4,13,0.8,318.812,M,-28.308,M,18.0,1015*4E
$GPGGA,045121.20,3911.6401707,N,09634.4651853,W,4,13,0.8,318.815,M,-28.308,M,18.0,1015*41
$GPGGA,045121.30,3911.6401680,N,09634.4651864,W,4,13,0.8,318.811,M,-28.308,M,18.0,1015*4E
$GPGGA,045121.40,3911.6401642,N,09634.4651842,W,4,13,0.8,318.814,M,-28.308,M,18.0,1015*46
$GPGGA,045121.50,3911.6401660,N,09634.4651812,W,4,13,0.8,318.814,M,-28.308,M,18.0,1015*42
$GPGGA,045121.60,3911.6401680,N,09634.4651859,W,4,13,0.8,318.840,M,-28.308,M,18.0,1015*41
$GPGGA,045121.70,3911.6401693,N,09634.4651831,W,4,13,0.8,318.816,M,-28.308,M,18.0,1015*4F
$GPGGA,045121.80,3911.6401665,N,09634.4651845,W,4,13,0.8,318.824,M,-28.308,M,18.0,1015*4B
$GPGGA,045121.90,3911.6401666,N,09634.4651813,W,4,13,0.8,318.817,M,-28.308,M,18.0,1015*4A
$GPGGA,045122.00,3911.6401702,N,09634.4651852,W,4,13,0.8,318.831,M,-28.308,M,19.0,1015*43
$GPGGA,045122.10,3911.6401676,N,09634.4651833,W,4,13,0.8,318.818,M,-28.308,M,19.0,1015*4C
$GPGGA,045122.20,3911.6401643,N,09634.4651787,W,4,13,0.8,318.796,M,-28.308,M,19.0,1015*40
$GPGGA,045122.30,3911.6401660,N,09634.4651797,W,4,13,0.8,318.810,M,-28.308,M,19.0,1015*40
$GPGGA,045122.40,3911.6401705,N,09634.4651828,W,4,13,0.8,318.823,M,-28.308,M,19.0,1015*4E
$GPGGA,045122.50,3911.6401685,N,09634.4651800,W,4,13,0.8,318.806,M,-28.308,M,19.0,1015*4B
$GPGGA,045122.60,3911.6401695,N,09634.4651831,W,4,13,0.8,318.817,M,-28.308,M,19.0,1015*4B
$GPGGA,045122.70,3911.6401667,N,09634.4651831,W,4,13,0.8,318.824,M,-28.308,M,19.0,1015*47
$GPGGA,045122.80,3911.6401730,N,09634.4651770,W,4,13,0.8,318.781,M,-28.308,M,9.0,1015*70
$GPGGA,045122.90,3911.6401744,N,09634.4651774,W,4,13,0.8,318.783,M,-28.308,M,9.0,1015*74
$GPGGA,045123.00,3911.6401777,N,09634.4651807,W,4,13,0.8,318.793,M,-28.308,M,10.0,1015*4E
$GPGGA,045123.10,3911.6401781,N,09634.4651777,W,4,13,0.8,318.783,M,-28.308,M,10.0,1015*4F
$GPGGA,045123.20,3911.6401754,N,09634.4651757,W,4,13,0.8,318.787,M,-28.308,M,10.0,1015*42
$GPGGA,045123.30,3911.6401749,N,09634.4651744,W,4,13,0.8,318.783,M,-28.308,M,10.0,1015*49
$GPGGA,045123.40,3911.6401746,N,09634.4651772,W,4,13,0.8,318.784,M,-28.308,M,10.0,1015*43
$GPGGA,045123.50,3911.6401750,N,09634.4651784,W,4,13,0.8,318.799,M,-28.308,M,10.0,1015*40
$GPGGA,045123.60,3911.6401734,N,09634.4651773,W,4,13,0.8,318.804,M,-28.308,M,10.0,1015*42
$GPGGA,045123.70,3911.6401738,N,09634.4651742,W,4,13,0.8,318.804,M,-28.308,M,10.0,1015*4D
$GPGGA,045123.80,3911.6401802,N,09634.4651805,W,4,13,0.8,318.808,M,-28.308,M,10.0,1015*44
$GPGGA,045123.90,3911.6401718,N,09634.4651793,W,4,13,0.8,318.791,M,-28.308,M,10.0,1015*4E
$GPGGA,045124.00,3911.6401812,N,09634.4651765,W,4,13,0.8,318.809,M,-28.308,M,11.0,1015*43
$GPGGA,045124.10,3911.6401776,N,09634.4651795,W,4,13,0.8,318.794,M,-28.308,M,11.0,1015*4B
$GPGGA,045124.20,3911.6401791,N,09634.4651775,W,4,13,0.8,318.806,M,-28.308,M,11.0,1015*4B
$GPGGA,045124.30,3911.6401794,N,09634.4651771,W,4,13,0.8,318.800,M,-28.308,M,11.0,1015*4D
$GPGGA,045124.40,3911.6401751,N,09634.4651766,W,4,13,0.8,318.798,M,-28.308,M,11.0,1015*4B
$GPGGA,045124.50,3911.6401729,N,09634.4651748,W,4,13,0.8,318.802,M,-28.308,M,11.0,1015*45
$GPGGA,045124.60,3911.6401742,N,09634.4651747,W,4,13,0.8,318.807,M,-28.308,M,11.0,1015*41
$GPGGA,045124.70,3911.6401704,N,09634.4651692,W,4,13,0.8,318.783,M,-28.308,M,11.0,1015*48
$GPGGA,045124.80,3911.6401766,N,09634.4651782,W,4,13,0.8,318.816,M,-28.308,M,11.0,1015*40
$GPGGA,045124.90,3911.6401733,N,09634.4651749,W,4,13,0.8,318.790,M,-28.308,M,11.0,1015*47
$GPGGA,045125.00,3911.6401714,N,09634.4651779,W,4,13,0.8,318.790,M,-28.308,M,12.0,1015*4A
$GPGGA,045125.10,3911.6401712,N,09634.4651757,W,4,13,0.8,318.798,M,-28.308,M,12.0,1015*49
$GPGGA,045125.20,3911.6401746,N,09634.4651786,W,4,13,0.8,318.816,M,-28.308,M,12.0,1015*4E
$GPGGA,045125.30,3911.6401660,N,09634.4651741,W,4,13,0.8,318.788,M,-28.308,M,12.0,1015*49
$GPGGA,045125.40,3911.6401709,N,09634.4651809,W,4,13,0.8,318.815,M,-28.308,M,12.0,1015*48
$GPGGA,045125.50,3911.6401759,N,09634.4651784,W,4,13,0.8,318.810,M,-28.308,M,12.0,1015*43
$GPGGA,045125.60,3911.6401699,N,09634.4651780,W,4,13,0.8,318.790,M,-28.308,M,12.0,1015*4E
$GPGGA,045125.70,3911.6401743,N,09634.4651805,W,4,13,0.8,318.811,M,-28.308,M,12.0,1015*4D
$GPGGA,045125.80,3911.6401693,N,09634.4651773,W,4,13,0.8,318.797,M,-28.308,M,12.0,1015*41
$GPGGA,045125.90,3911.6401727,N,09634.4651743,W,4,13,0.8,318.804,M,-28.308,M,12.0,1015*48
$GPGGA,045126.00,3911.6401683,N,09634.4651692,W,4,13,0.8,318.793,M,-28.308,M,13.0,1015*40
$GPGGA,045126.10,3911.6401766,N,09634.4651778,W,4,13,0.8,318.812,M,-28.308,M,13.0,1015*48
$GPGGA,045126.20,3911.6401725,N,09634.4651746,W,4,13,0.8,318.805,M,-28.308,M,13.0,1015*47
$GPGGA,045126.30,3911.6401714,N,09634.4651738,W,4,13,0.8,318.803,M,-28.308,M,13.0,1015*4B
$GPGGA,045126.40,3911.6401740,N,09634.4651742,W,4,13,0.8,318.799,M,-28.308,M,13.0,1015*4C
$GPGGA,045126.50,3911.6401704,N,09634.4651718,W,4,13,0.8,318.803,M,-28.308,M,13.0,1015*4E
$GPGGA,045126.60,3911.6401745,N,09634.4651715,W,4,13,0.8,318.814,M,-28.308,M,13.0,1015*43
$GPGGA,045126.70,3911.6401682,N,09634.4651716,W,4,13,0.8,318.798,M,-28.308,M,13.0,1015*40
$GPGGA,045126.80,3911.6401704,N,09634.4651702,W,4,13,0.8,318.816,M,-28.308,M,13.0,1015*4C
$GPGGA,045126.90,3911.6401738,N,09634.4651726,W,4,13,0.8,318.813,M,-28.308,M,13.0,1015*41
$GPGGA,045127.00,3911.6401692,N,09634.4651677,W,4,13,0.8,318.800,M,-28.308,M,14.0,1015*48
$GPGGA,045127.10,3911.6401741,N,09634.4651724,W,4,13,0.8,318.804,M,-28.308,M,14.0,1015*45
$GPGGA,045127.20,3911.6401755,N,09634.4651687,W,4,13,0.8,318.801,M,-28.308,M,14.0,1015*4E
$GPGGA,045127.30,3911.6401763,N,09634.4651729,W,4,13,0.8,318.798,M,-28.308,M,14.0,1015*40
$GPGGA,045127.40,3911.6401774,N,09634.4651694,W,4,13,0.8,318.803,M,-28.308,M,14.0,1015*4B
$GPGGA,045127.50,3911.6401769,N,09634.4651708,W,4,13,0.8,318.801,M,-28.308,M,14.0,1015*40
$GPGGA,045127.60,3911.6401781,N,09634.4651714,W,4,13,0.8,318.807,M,-28.308,M,14.0,1015*4E
$GPGGA,045127.70,3911.6401768,N,09634.4651729,W,4,13,0.8,318.806,M,-28.308,M,14.0,1015*47
$GPGGA,045127.80,3911.6401752,N,09634.4651718,W,4,13,0.8,318.803,M,-28.308,M,14.0,1015*46
$GPGGA,045127.90,3911.6401796,N,09634.4651737,W,4,13,0.8,318.816,M,-28.308,M,14.0,1015*46
$GPGGA,045128.00,3911.6401782,N,09634.4651751,W,4,13,0.8,318.820,M,-28.308,M,15.0,1015*41
$GPGGA,045128.10,3911.6401765,N,09634.4651715,W,4,13,0.8,318.796,M,-28.308,M,15.0,1015*4B
$GPGGA,045128.20,3911.6401764,N,09634.4651694,W,4,13,0.8,318.805,M,-28.308,M,15.0,1015*44
$GPGGA,045128.30,3911.6401819,N,09634.4651736,W,4,13,0.8,318.808,M,-28.308,M,15.0,1015*44
$GPGGA,045128.40,3911.6401786,N,09634.4651741,W,4,13,0.8,318.812,M,-28.308,M,15.0,1015*41
$GPGGA,045128.50,3911.6401807,N,09634.4651709,W,4,13,0.8,318.812,M,-28.308,M,15.0,1015*4A
$GPGGA,045128.60,3911.6401770,N,09634.4651694,W,4,13,0.8,318.806,M,-28.308,M,15.0,1015*46
$GPGGA,045128.70,3911.6401798,N,09634.4651734,W,4,13,0.8,318.796,M,-28.308,M,15.0,1015*4C
$GPGGA,045128.80,3911.6401807,N,09634.4651714,W,4,13,0.8,318.803,M,-28.308,M,15.0,1015*4B
$GPGGA,045128.90,3911.6401807,N,09634.4651741,W,4,13,0.8,318.810,M,-28.308,M,15.0,1015*48
$GPGGA,045129.00,3911.6401773,N,09634.4651733,W,4,13,0.8,318.815,M,-28.308,M,16.0,1015*4F
$GPGGA,045129.10,3911.6401752,N,09634.4651714,W,4,13,0.8,318.797,M,-28.308,M,16.0,1015*4D
$GPGGA,045129.20,3911.6401815,N,09634.4651754,W,4,13,0.8,318.811,M,-28.308,M,16.0,1015*47
$GPGGA,045129.30,3911.6401799,N,09634.4651712,W,4,13,0.8,318.814,M,-28.308,M,16.0,1015*4A
$GPGGA,045129.40,3911.6401827,N,09634.4651741,W,4,13,0.8,318.811,M,-28.308,M,16.0,1015*44
$GPGGA,045129.50,3911.6401811,N,09634.4651717,W,4,13,0.8,318.802,M,-28.308,M,16.0,1015*41
$GPGGA,045129.60,3911.6401810,N,09634.4651728,W,4,13,0.8,318.799,M,-28.308,M,16.0,1015*42
$GPGGA,045129.70,3911.6401811,N,09634.4651727,W,4,13,0.8,318.802,M,-28.308,M,16.0,1015*40
$GPGGA,045129.80,3911.6401814,N,09634.4651679,W,4,13,0.8,318.778,M,-28.308,M,16.0,1015*42
$GPGGA,045129.90,3911.6401837,N,09634.4651703,W,4,13,0.8,318.801,M,-28.308,M,16.0,1015*4F
$GPGGA,045130.00,3911.6401827,N,09634.4651707,W,4,13,0.8,318.798,M,-28.308,M,17.0,1015*45
$GPGGA,045130.10,3911.6401859,N,09634.4651673,W,4,13,0.8,318.802,M,-28.308,M,17.0,1015*43
$GPGGA,045130.20,3911.6401858,N,09634.4651736,W,4,13,0.8,318.787,M,-28.308,M,17.0,1015*43
$GPGGA,045130.30,3911.6401797,N,09634.4651688,W,4,13,0.8,318.787,M,-28.308,M,17.0,1015*4A
$GPGGA,045130.40,3911.6401841,N,09634.4651760,W,4,13,0.8,318.802,M,-28.308,M,17.0,1015*4C
$GPGGA,045130.50,3911.6401807,N,09634.4651724,W,4,13,0.8,318.799,M,-28.308,M,17.0,1015*42
$GPGGA,045130.60,3911.6401861,N,09634.4651710,W,4,13,0.8,318.792,M,-28.308,M,17.0,1015*4D
$GPGGA,045130.70,3911.6401864,N,09634.4651713,W,4,13,0.8,318.798,M,-28.308,M,17.0,1015*40
$GPGGA,045130.80,3911.6401802,N,09634.4651729,W,4,13,0.8,318.801,M,-28.308,M,17.0,1015*49
$GPGGA,045130.90,3911.6401827,N,09634.4651700,W,4,13,0.8,318.811,M,-28.308,M,17.0,1015*45
$GPGGA,045131.00,3911.6401799,N,09634.4651767,W,4,13,0.8,318.807,M,-28.308,M,18.0,1015*4E
$GPGGA,045131.10,3911.6401824,N,09634.4651707,W,4,13,0.8,318.808,M,-28.308,M,18.0,1015*4F
$GPGGA,045131.20,3911.6401821,N,09634.4651748,W,4,13,0.8,318.812,M,-28.308,M,18.0,1015*49
$GPGGA,045131.30,3911.6401782,N,09634.4651720,W,4,13,0.8,318.797,M,-28.308,M,18.0,1015*42
$GPGGA,045131.40,3911.6401782,N,09634.4651696,W,4,13,0.8,318.802,M,-28.308,M,18.0,1015*4A
$GPGGA,045131.50,3911.6401788,N,09634.4651684,W,4,13,0.8,318.795,M,-28.308,M,18.0,1015*43
$GPGGA,045131.60,3911.6401804,N,09634.4651735,W,4,13,0.8,318.807,M,-28.308,M,18.0,1015*44
$GPGGA,045131.70,3911.6401784,N,09634.4651714,W,4,13,0.8,318.812,M,-28.308,M,18.0,1015*45
$GPGGA,045131.80,3911.6401801,N,09634.4651724,W,4,13,0.8,318.804,M,-28.308,M,18.0,1015*4C
$GPGGA,045131.90,3911.6401762,N,09634.4651713,W,4,13,0.8,318.791,M,-28.308,M,18.0,1015*40
$GPGGA,045132.00,3911.6401777,N,09634.4651709,W,4,13,0.8,318.810,M,-28.308,M,19.0,1015*42
$GPGGA,045132.10,3911.6401766,N,09634.4651690,W,4,13,0.8,318.814,M,-28.308,M,19.0,1015*46
$GPGGA,045132.20,3911.6401797,N,09634.4651677,W,4,13,0.8,318.813,M,-28.308,M,19.0,1015*45
$GPGGA,045132.30,3911.6401778,N,09634.4651706,W,4,13,0.8,318.807,M,-28.308,M,19.0,1015*47
$GPGGA,045132.40,3911.6401828,N,09634.4651669,W,4,13,0.8,318.820,M,-28.308,M,19.0,1015*47
$GPGGA,045132.50,3911.6401774,N,09634.4651680,W,4,13,0.8,318.813,M,-28.308,M,19.0,1015*47
$GPGGA,045132.60,3911.6401836,N,09634.4651658,W,4,13,0.8,318.818,M,-28.308,M,19.0,1015*43
$GPGGA,045132.70,3911.6401787,N,09634.4651684,W,4,13,0.8,318.812,M,-28.308,M,19.0,1015*4C
$GPGGA,045132.80,3911.6401813,N,09634.4651674,W,4,13,0.8,318.819,M,-28.308,M,19.0,1015*45
$GPGGA,045132.90,3911.6401774,N,09634.4651688,W,4,13,0.8,318.801,M,-28.308,M,19.0,1015*40
$GPGGA,045133.00,3911.6401777,N,09634.4651692,W,4,13,0.8,318.817,M,-28.308,M,20.0,1015*4D
$GPGGA,045133.10,3911.6401842,N,09634.4651684,W,4,13,0.8,318.815,M,-28.308,M,20.0,1015*40
$GPGGA,045133.20,3911.6401838,N,09634.4651688,W,4,13,0.8,318.814,M,-28.308,M,20.0,1015*43
$GPGGA,045133.30,3911.6401818,N,09634.4651680,W,4,13,0.8,318.806,M,-28.308,M,20.0,1015*4B
$GPGGA,045133.40,3911.6401782,N,09634.4651681,W,4,13,0.8,318.807,M,-28.308,M,20.0,1015*40
$GPGGA,045133.50,3911.6401777,N,09634.4651680,W,4,13,0.8,318.818,M,-28.308,M,20.0,1015*44
$GPGGA,045133.60,3911.6401826,N,09634.4651719,W,4,13,0.8,318.823,M,-28.308,M,20.0,1015*45
$GPGGA,045133.70,3911.6401839,N,09634.4651672,W,4,13,0.8,318.820,M,-28.308,M,20.0,1015*45
$GPGGA,045133.80,3911.6401791,N,09634.4651707,W,4,13,0.8,318.812,M,-28.308,M,20.0,1015*45
$GPGGA,045133.90,3911.6401836,N,09634.4651701,W,4,13,0.8,318.818,M,-28.308,M,20.0,1015*4A
$GPGGA,045134.00,3911.6401770,N,09634.4651762,W,4,13,0.8,318.773,M,-28.308,M,11.0,1015*4C
$GPGGA,045134.10,3911.6401800,N,09634.4651806,W,4,13,0.8,318.789,M,-28.308,M,11.0,1015*4D
$GPGGA,045134.20,3911.6401842,N,09634.4651782,W,4,13,0.8,318.808,M,-28.308,M,11.0,1015*4D
$GPGGA,045134.30,3911.6401826,N,09634.4651732,W,4,13,0.8,318.785,M,-28.308,M,11.0,1015*4F
$GPGGA,045134.40,3911.6401857,N,09634.4651759,W,4,13,0.8,318.797,M,-28.308,M,11.0,1015*40
$GPGGA,045134.50,3911.6401822,N,09634.4651761,W,4,13,0.8,318.792,M,-28.308,M,11.0,1015*4D
$GPGGA,045134.60,3911.6401791,N,09634.4651730,W,4,13,0.8,318.788,M,-28.308,M,11.0,1015*46
$GPGGA,045134.70,3911.6401837,N,09634.4651746,W,4,13,0.8,318.799,M,-28.308,M,11.0,1015*45
$GPGGA,045134.80,3911.6401822,N,09634.4651752,W,4,13,0.8,318.793,M,-28.308,M,11.0,1015*41
$GPGGA,045134.90,3911.6401748,N,09634.4651744,W,4,13,0.8,318.790,M,-28.308,M,11.0,1015*47
$GPGGA,045135.00,3911.6401811,N,09634.4651758,W,4,13,0.8,318.800,M,-28.308,M,12.0,1015*44
$GPGGA,045135.10,3911.6401819,N,09634.4651778,W,4,13,0.8,318.799,M,-28.308,M,12.0,1015*40
$GPGGA,045135.20,3911.6401789,N,09634.4651738,W,4,13,0.8,318.792,M,-28.308,M,12.0,1015*4A
$GPGGA,045135.30,3911.6401806,N,09634.4651757,W,4,13,0.8,318.795,M,-28.308,M,12.0,1015*4D
$GPGGA,045135.40,3911.6401752,N,09634.4651737,W,4,13,0.8,318.781,M,-28.308,M,12.0,1015*47
$GPGGA,045135.50,3911.6401793,N,09634.4651758,W,4,13,0.8,318.810,M,-28.308,M,12.0,1015*45
$GPGGA,045135.60,3911.6401770,N,09634.4651781,W,4,13,0.8,318.808,M,-28.308,M,12.0,1015*46
$GPGGA,045135.70,3911.6401824,N,09634.4651784,W,4,13,0.8,318.815,M,-28.308,M,12.0,1015*40
$GPGGA,045135.80,3911.6401802,N,09634.4651787,W,4,13,0.8,318.810,M,-28.308,M,12.0,1015*4D
$GPGGA,045135.90,3911.6401809,N,09634.4651745,W,4,13,0.8,318.812,M,-28.308,M,12.0,1015*4B
$GPGGA,045136.00,3911.6401787,N,09634.4651768,W,4,13,0.8,318.806,M,-28.308,M,13.0,1015*43
$GPGGA,045136.10,3911.6401833,N,09634.4651766,W,4,13,0.8,318.821,M,-28.308,M,13.0,1015*49
$GPGGA,045136.20,3911.6401823,N,09634.4651749,W,4,13,0.8,318.810,M,-28.308,M,13.0,1015*44
$GPGGA,045136.30,3911.6401826,N,09634.4651723,W,4,13,0.8,318.802,M,-28.308,M,13.0,1015*4F
$GPGGA,045136.40,3911.6401802,N,09634.4651714,W,4,13,0.8,318.796,M,-28.308,M,13.0,1015*48
$GPGGA,045136.50,3911.6401818,N,09634.4651778,W,4,13,0.8,318.811,M,-28.308,M,13.0,1015*48
$GPGGA,045136.60,3911.6401833,N,09634.4651751,W,4,13,0.8,318.802,M,-28.308,M,13.0,1015*4B
$GPGGA,045136.70,3911.6401816,N,09634.4651788,W,4,13,0.8,318.799,M,-28.308,M,13.0,1015*44
$GPGGA,045136.80,3911.6401843,N,09634.4651756,W,4,13,0.8,318.797,M,-28.308,M,13.0,1015*46
$GPGGA,045136.90,3911.6401821,N,09634.4651787,W,4,13,0.8,318.801,M,-28.308,M,13.0,1015*4F
$GPGGA,045137.00,3911.6401879,N,09634.4651788,W,4,13,0.8,318.813,M,-28.308,M,14.0,1015*41
$GPGGA,045137.10,3911.6401836,N,09634.4651782,W,4,13,0.8,318.802,M,-28.308,M,14.0,1015*41
$GPGGA,045137.20,3911.6401848,N,09634.4651811,W,4,13,0.8,318.812,M,-28.308,M,14.0,1015*4F
$GPGGA,045137.30,3911.6401830,N,09634.4651807,W,4,13,0.8,318.816,M,-28.308,M,14.0,1015*42
$GPGGA,045137.40,3911.6401806,N,09634.4651806,W,4,13,0.8,318.807,M,-28.308,M,14.0,1015*41
$GPGGA,045137.50,3911.6401836,N,09634.4651808,W,4,13,0.8,318.811,M,-28.308,M,14.0,1015*4A
$GPGGA,045137.60,3911.6401857,N,09634.4651806,W,4,13,0.8,318.812,M,-28.308,M,14.0,1015*43
$GPGGA,045137.70,3911.6401851,N,09634.4651825,W,4,13,0.8,318.808,M,-28.308,M,14.0,1015*4E
$GPGGA,045137.80,3911.6401835,N,09634.4651799,W,4,13,0.8,318.810,M,-28.308,M,14.0,1015*42
$GPGGA,045137.90,3911.6401784,N,09634.4651822,W,4,13,0.8,318.809,M,-28.308,M,14.0,1015*41
$GPGGA,045138.00,3911.6401868,N,09634.4651828,W,4,13,0.8,318.819,M,-28.308,M,15.0,1015*40
$GPGGA,045138.10,3911.6401855,N,09634.4651784,W,4,13,0.8,318.808,M,-28.308,M,15.0,1015*46
$GPGGA,045138.20,3911.6401848,N,09634.4651775,W,4,13,0.8,318.809,M,-28.308,M,15.0,1015*46
$GPGGA,045138.30,3911.6401849,N,09634.4651838,W,4,13,0.8,318.816,M,-28.308,M,15.0,1015*4E
$GPGGA,045138.40,3911.6401830,N,09634.4651792,W,4,13,0.8,318.809,M,-28.308,M,15.0,1015*46
$GPGGA,045138.50,3911.6401842,N,09634.4651812,W,4,13,0.8,318.815,M,-28.308,M,15.0,1015*48
$GPGGA,045138.60,3911.6401861,N,09634.4651825,W,4,13,0.8,318.811,M,-28.308,M,15.0,1015*4A
$GPGGA,045138.70,3911.6401844,N,09634.4651819,W,4,13,0.8,318.811,M,-28.308,M,15.0,1015*43
$GPGGA,045138.80,3911.6401893,N,09634.4651840,W,4,13,0.8,318.821,M,-28.308,M,15.0,1015*49
$GPGGA,045138.90,3911.6401828,N,09634.4651831,W,4,13,0.8,318.811,M,-28.308,M,15.0,1015*4D
$GPGGA,045139.00,3911.6401851,N,09634.4651811,W,4,13,0.8,318.811,M,-28.308,M,16.0,1015*4A
$GPGGA,045139.10,3911.6401887,N,09634.4651834,W,4,13,0.8,318.821,M,-28.308,M,16.0,1015*44
$GPGGA,045139.20,3911.6401886,N,09634.4651816,W,4,13,0.8,318.814,M,-28.308,M,16.0,1015*40
$GPGGA,045139.30,3911.6401871,N,09634.4651794,W,4,13,0.8,318.819,M,-28.308,M,16.0,1015*41
$GPGGA,045139.40,3911.6401828,N,09634.4651844,W,4,13,0.8,318.811,M,-28.308,M,16.0,1015*40
$GPGGA,045139.50,3911.6401836,N,09634.4651805,W,4,12,0.9,318.819,M,-28.308,M,16.0,1015*43
$GPGGA,045139.60,3911.6401868,N,09634.4651813,W,4,12,0.9,318.823,M,-28.308,M,16.0,1015*45
$GPGGA,045139.70,3911.6401861,N,09634.4651807,W,4,12,0.9,318.823,M,-28.308,M,16.0,1015*48
$GPGGA,045139.80,3911.6401845,N,09634.4651799,W,4,12,0.9,318.816,M,-28.308,M,16.0,1015*4F
$GPGGA,045139.90,3911.6401881,N,09634.4651822,W,4,12,0.9,318.839,M,-28.308,M,16.0,1015*44
$GPGGA,045140.00,3911.6401843,N,09634.4651826,W,4,12,0.9,318.829,M,-28.308,M,17.0,1015*49
$GPGGA,045140.10,3911.6401859,N,09634.4651846,W,4,12,0.9,318.843,M,-28.308,M,17.0,1015*49
$GPGGA,045140.20,3911.6401841,N,09634.4651784,W,4,12,0.9,318.817,M,-28.308,M,17.0,1015*43
$GPGGA,045140.30,3911.6401860,N,09634.4651828,W,4,12,0.9,318.822,M,-28.308,M,17.0,1015*4E
$GPGGA,045140.40,3911.6401856,N,09634.4651827,W,4,12,0.9,318.824,M,-28.308,M,17.0,1015*45
$GPGGA,045140.50,3911.6401888,N,09634.4651811,W,4,12,0.9,318.830,M,-28.308,M,17.0,1015*47
$GPGGA,045140.60,3911.6401867,N,09634.4651832,W,4,12,0.9,318.825,M,-28.308,M,17.0,1015*40
$GPGGA,045140.70,3911.6401859,N,09634.4651831,W,4,12,0.9,318.832,M,-28.308,M,17.0,1015*49
$GPGGA,045140.80,3911.6401888,N,09634.4651824,W,4,12,0.9,318.814,M,-28.308,M,17.0,1015*4A
$GPGGA,045140.90,3911.6401882,N,09634.4651879,W,4,12,0.9,318.833,M,-28.308,M,17.0,1015*4C
$GPGGA,045141.00,3911.6401883,N,09634.4651819,W,4,12,0.9,318.837,M,-28.308,M,18.0,1015*48
$GPGGA,045141.10,3911.6401870,N,09634.4651824,W,4,13,0.8,318.830,M,-28.308,M,18.0,1015*4C
$GPGGA,045141.20,3911.6401879,N,09634.4651834,W,4,13,0.8,318.838,M,-28.308,M,18.0,1015*4F
$GPGGA,045141.30,3911.6401860,N,09634.4651794,W,4,13,0.8,318.838,M,-28.308,M,18.0,1015*43
$GPGGA,045141.40,3911.6401872,N,09634.4651835,W,4,13,0.8,318.845,M,-28.308,M,18.0,1015*49
$GPGGA,045141.50,3911.6401862,N,09634.4651817,W,4,13,0.8,318.847,M,-28.308,M,18.0,1015*4B
$GPGGA,045141.60,3911.6401888,N,09634.4651822,W,4,13,0.8,318.843,M,-28.308,M,18.0,1015*4E
$GPGGA,045141.70,3911.6401879,N,09634.4651879,W,4,13,0.8,318.844,M,-28.308,M,18.0,1015*48
$GPGGA,045141.80,3911.6401890,N,09634.4651877,W,4,13,0.8,318.841,M,-28.308,M,18.0,1015*4B
$GPGGA,045141.90,3911.6401893,N,09634.4651867,W,4,13,0.8,318.834,M,-28.308,M,18.0,1015*4A
$GPGGA,045142.00,3911.6401928,N,09634.4651862,W,4,13,0.8,318.838,M,-28.308,M,19.0,1015*49
$GPGGA,045142.10,3911.6401839,N,09634.4651853,W,4,13,0.8,318.816,M,-28.308,M,19.0,1015*47
$GPGGA,045142.20,3911.6401928,N,09634.4651878,W,4,13,0.8,318.832,M,-28.308,M,19.0,1015*4A
$GPGGA,045142.30,3911.6401890,N,09634.4651892,W,4,13,0.8,318.850,M,-28.308,M,19.0,1015*49
$GPGGA,045142.40,3911.6401886,N,09634.4651859,W,4,13,0.8,318.826,M,-28.308,M,19.0,1015*4F
$GPGGA,045142.50,3911.6401906,N,09634.4651877,W,4,13,0.8,318.838,M,-28.308,M,19.0,1015*44
$GPGGA,045142.60,3911.6401911,N,09634.4651836,W,4,13,0.8,318.830,M,-28.308,M,19.0,1015*4C
$GPGGA,045142.70,3911.6401955,N,09634.4651823,W,4,13,0.8,318.843,M,-28.308,M,19.0,1015*4D
$GPGGA,045142.80,3911.6401905,N,09634.4651876,W,4,13,0.8,318.841,M,-28.308,M,19.0,1015*45
$GPGGA,045142.90,3911.6401924,N,09634.4651900,W,4,13,0.8,318.855,M,-28.308,M,19.0,1015*42
$GPGGA,045143.00,3911.6401927,N,09634.4651860,W,4,13,0.8,318.841,M,-28.308,M,20.0,1015*41
$GPGGA,045143.10,3911.6401917,N,09634.4651872,W,4,13,0.8,318.840,M,-28.308,M,20.0,1015*41
$GPGGA,045143.20,3911.6401882,N,09634.4651886,W,4,13,0.8,318.845,M,-28.308,M,20.0,1015*41
$GPGGA,045143.30,3911.6401965,N,09634.4651883,W,4,13,0.8,318.853,M,-28.308,M,20.0,1015*4A
$GPGGA,045143.40,3911.6401883,N,09634.4651911,W,4,13,0.8,318.806,M,-28.308,M,10.0,1015*4D
$GPGGA,045143.50,3911.6401913,N,09634.4651926,W,4,13,0.8,318.820,M,-28.308,M,10.0,1015*44
$GPGGA,045143.60,3911.6401921,N,09634.4651944,W,4,13,0.8,318.808,M,-28.308,M,10.0,1015*48
$GPGGA,045143.70,3911.6401882,N,09634.4651904,W,4,13,0.8,318.807,M,-28.308,M,10.0,1015*4A
$GPGGA,045143.80,3911.6401911,N,09634.4651886,W,4,13,0.8,318.822,M,-28.308,M,10.0,1015*42
$GPGGA,045143.90,3911.6401884,N,09634.4651876,W,4,13,0.8,318.812,M,-28.308,M,10.0,1015*42
$GPGGA,045144.00,3911.6401917,N,09634.4651910,W,4,13,0.8,318.821,M,-28.308,M,11.0,1015*47
$GPGGA,045144.10,3911.6401889,N,09634.4651957,W,4,13,0.8,318.835,M,-28.308,M,11.0,1015*46
$GPGGA,045144.20,3911.6401915,N,09634.4651906,W,4,13,0.8,318.825,M,-28.308,M,11.0,1015*44
$GPGGA,045144.30,3911.6401895,N,09634.4651910,W,4,13,0.8,318.825,M,-28.308,M,11.0,1015*4B
$GPGGA,045144.40,3911.6401880,N,09634.4651922,W,4,13,0.8,318.832,M,-28.308,M,11.0,1015*4F
$GPGGA,045144.50,3911.6401913,N,09634.4651912,W,4,13,0.8,318.835,M,-28.308,M,11.0,1015*41
$GPGGA,045144.60,3911.6401888,N,09634.4651926,W,4,13,0.8,318.848,M,-28.308,M,11.0,1015*4C
$GPGGA,045144.70,3911.6401854,N,09634.4651909,W,4,13,0.8,318.823,M,-28.308,M,11.0,1015*4C
$GPGGA,045144.80,3911.6401889,N,09634.4651917,W,4,13,0.8,318.831,M,-28.308,M,11.0,1015*4F
$GPGGA,045144.90,3911.6401906,N,09634.4651933,W,4,13,0.8,318.830,M,-28.308,M,11.0,1015*4F
$GPGGA,045145.00,3911.6401933,N,09634.4651904,W,4,13,0.8,318.834,M,-28.308,M,12.0,1015*42
$GPGGA,045145.10,3911.6401871,N,09634.4651929,W,4,13,0.8,318.834,M,-28.308,M,12.0,1015*4B
$GPGGA,045145.20,3911.6401915,N,09634.4651940,W,4,13,0.8,318.845,M,-28.308,M,12.0,1015*42
$GPGGA,045145.30,3911.6401900,N,09634.4651971,W,4,13,0.8,318.845,M,-28.308,M,12.0,1015*45
$GPGGA,045145.40,3911.6401941,N,09634.4651951,W,4,13,0.8,318.833,M,-28.308,M,12.0,1015*44
$GPGGA,045145.50,3911.6401929,N,09634.4651938,W,4,13,0.8,318.832,M,-28.308,M,12.0,1015*45
$GPGGA,045145.60,3911.6401926,N,09634.4651926,W,4,13,0.8,318.828,M,-28.308,M,12.0,1015*4D
$GPGGA,045145.70,3911.6401927,N,09634.4651920,W,4,13,0.8,318.833,M,-28.308,M,12.0,1015*41
$GPGGA,045145.80,3911.6401903,N,09634.4651910,W,4,13,0.8,318.840,M,-28.308,M,12.0,1015*4F
$GPGGA,045145.90,3911.6401921,N,09634.4651910,W,4,13,0.8,318.836,M,-28.308,M,12.0,1015*4F
$GPGGA,045146.00,3911.6401899,N,09634.4651844,W,4,13,0.8,318.820,M,-28.308,M,13.0,1015*41
$GPGGA,045146.10,3911.6401904,N,09634.4651925,W,4,13,0.8,318.837,M,-28.308,M,13.0,1015*45
$GPGGA,045146.20,3911.6401891,N,09634.4651884,W,4,13,0.8,318.830,M,-28.308,M,13.0,1015*46
$GPGGA,045146.30,3911.6401940,N,09634.4651923,W,4,13,0.8,318.843,M,-28.308,M,13.0,1015*42
$GPGGA,045146.40,3911.6401898,N,09634.4651899,W,4,13,0.8,318.835,M,-28.308,M,13.0,1015*40
$GPGGA,045146.50,3911.6401921,N,09634.4651889,W,4,13,0.8,318.837,M,-28.308,M,13.0,1015*41
$GPGGA,045146.60,3911.6401928,N,09634.4651904,W,4,13,0.8,318.834,M,-28.308,M,13.0,1015*4C
$GPGGA,045146.70,3911.6401911,N,09634.4651906,W,4,13,0.8,318.834,M,-28.308,M,13.0,1015*45
$GPGGA,045146.80,3911.6401902,N,09634.4651902,W,4,13,0.8,318.828,M,-28.308,M,13.0,1015*41
$GPGGA,045146.90,3911.6401920,N,09634.4651942,W,4,13,0.8,318.839,M,-28.308,M,13.0,1015*44
$GPGGA,045147.00,3911.6401907,N,09634.4651899,W,4,13,0.8,318.826,M,-28.308,M,14.0,1015*47
$GPGGA,045147.10,3911.6401911,N,09634.4651903,W,4,13,0.8,318.837,M,-28.308,M,14.0,1015*43
$GPGGA,045147.20,3911.6401933,N,09634.4651927,W,4,13,0.8,318.845,M,-28.308,M,14.0,1015*43
$GPGGA,045147.30,3911.6401878,N,09634.4651906,W,4,13,0.8,318.832,M,-28.308,M,14.0,1015*4F
$GPGGA,045147.40,3911.6401911,N,09634.4651925,W,4,13,0.8,318.831,M,-28.308,M,14.0,1015*44
$GPGGA,045147.50,3911.6401914,N,09634.4651927,W,4,13,0.8,318.838,M,-28.308,M,14.0,1015*4B
$GPGGA,045147.60,3911.6401932,N,09634.4651940,W,4,13,0.8,318.837,M,-28.308,M,14.0,1015*42
$GPGGA,045147.70,3911.6401915,N,09634.4651883,W,4,13,0.8,318.823,M,-28.308,M,14.0,1015*4D
$GPGGA,045147.80,3911.6401925,N,09634.4651952,W,4,13,0.8,318.844,M,-28.308,M,14.0,1015*4D
$GPGGA,045147.90,3911.6401891,N,09634.4651904,W,4,13,0.8,318.816,M,-28.308,M,14.0,1015*46
$GPGGA,045148.00,3911.6401881,N,09634.4651928,W,4,13,0.8,318.826,M,-28.308,M,15.0,1015*4D
$GPGGA,045148.10,3911.6401902,N,09634.4651896,W,4,13,0.8,318.835,M,-28.308,M,15.0,1015*40
$GPGGA,045148.20,3911.6401927,N,09634.4651896,W,4,13,0.8,318.833,M,-28.308,M,15.0,1015*42
$GPGGA,045148.30,3911.6401864,N,09634.4651896,W,4,13,0.8,318.827,M,-28.308,M,15.0,1015*40
$GPGGA,045148.40,3911.6401930,N,09634.4651875,W,4,13,0.8,318.825,M,-28.308,M,15.0,1015*48
$GPGGA,045148.50,3911.6401891,N,09634.4651898,W,4,13,0.8,318.822,M,-28.308,M,15.0,1015*47
$GPGGA,045148.60,3911.6401940,N,09634.4651916,W,4,13,0.8,318.845,M,-28.308,M,15.0,1015*4F
$GPGGA,045148.70,3911.6401940,N,09634.4651903,W,4,13,0.8,318.821,M,-28.308,M,15.0,1015*48
$GPGGA,045148.80,3911.6401913,N,09634.4651885,W,4,13,0.8,318.834,M,-28.308,M,15.0,1015*4A
$GPGGA,045148.90,3911.6401939,N,09634.4651859,W,4,13,0.8,318.821,M,-28.308,M,15.0,1015*46
$GPGGA,045149.00,3911.6401901,N,09634.4651879,W,4,13,0.8,318.830,M,-28.308,M,16.0,1015*44
$GPGGA,045149.10,3911.6401908,N,09634.4651897,W,4,13,0.8,318.836,M,-28.308,M,16.0,1015*4A
$GPGGA,045149.20,3911.6401886,N,09634.4651885,W,4,13,0.8,318.829,M,-28.308,M,16.0,1015*43
$GPGGA,045149.30,3911.6401886,N,09634.4651885,W,4,13,0.8,318.832,M,-28.308,M,16.0,1015*48
$GPGGA,045149.40,3911.6401913,N,09634.4651886,W,4,13,0.8,318.831,M,-28.308,M,16.0,1015*42
$GPGGA,045149.50,3911.6401898,N,09634.4651869,W,4,13,0.8,318.826,M,-28.308,M,16.0,1015*46
$GPGGA,045149.60,3911.6401918,N,09634.4651889,W,4,13,0.8,318.831,M,-28.308,M,16.0,1015*44
$GPGGA,045149.70,3911.6401793,N,09634.4651935,W,4,13,0.8,318.832,M,-28.308,M,16.0,1015*4D
$GPGGA,045149.80,3911.6401953,N,09634.4651948,W,4,12,1.0,318.846,M,-28.308,M,16.0,1015*41
$GPGGA,045149.90,3911.6401961,N,09634.4651947,W,4,12,1.0,318.848,M,-28.308,M,16.0,1015*40
$GPGGA,045150.00,3911.6401927,N,09634.4651926,W,4,13,0.8,318.852,M,-28.308,M,17.0,1015*46
$GPGGA,045150.10,3911.6401939,N,09634.4651954,W,4,13,0.8,318.850,M,-28.308,M,17.0,1015*4F
$GPGGA,045150.20,3911.6401937,N,09634.4651880,W,4,13,0.8,318.843,M,-28.308,M,17.0,1015*48
$GPGGA,045150.30,3911.6401934,N,09634.4651891,W,4,13,0.8,318.837,M,-28.308,M,17.0,1015*49
$GPGGA,045150.40,3911.6401940,N,09634.4651907,W,4,12,1.0,318.836,M,-28.308,M,17.0,1015*4A
$GPGGA,045150.50,3911.6401927,N,09634.4651960,W,4,12,1.0,318.853,M,-28.308,M,17.0,1015*48
$GPGGA,045150.60,3911.6401928,N,09634.4651940,W,4,12,1.0,318.834,M,-28.308,M,17.0,1015*47
$GPGGA,045150.70,3911.6401917,N,09634.4651925,W,4,12,1.0,318.836,M,-28.308,M,17.0,1015*4B
$GPGGA,045150.80,3911.6401919,N,09634.4651940,W,4,12,1.0,318.841,M,-28.308,M,17.0,1015*49
$GPGGA,045150.90,3911.6401892,N,09634.4651934,W,4,12,1.0,318.837,M,-28.308,M,17.0,1015*48
$GPGGA,045151.00,3911.6401931,N,09634.4651939,W,4,12,1.0,318.841,M,-28.308,M,18.0,1015*4B
$GPGGA,045151.10,3911.6401988,N,09634.4651931,W,4,12,1.0,318.858,M,-28.308,M,18.0,1015*48
$GPGGA,045151.20,3911.6401883,N,09634.4651933,W,4,12,1.0,318.837,M,-28.308,M,18.0,1015*4A
$GPGGA,045151.30,3911.6401916,N,09634.4651908,W,4,12,1.0,318.840,M,-28.308,M,18.0,1015*4E
$GPGGA,045151.40,3911.6401885,N,09634.4651897,W,4,12,1.0,318.829,M,-28.308,M,18.0,1015*4A
$GPGGA,045151.50,3911.6401918,N,09634.4651913,W,4,12,1.0,318.835,M,-28.308,M,18.0,1015*4E
$GPGGA,045151.60,3911.6401940,N,09634.4651889,W,4,12,1.0,318.838,M,-28.308,M,18.0,1015*4F
$GPGGA,045151.70,3911.6401908,N,09634.4651931,W,4,12,1.0,318.833,M,-28.308,M,18.0,1015*4B
$GPGGA,045151.80,3911.6401896,N,09634.4651947,W,4,12,0.9,318.843,M,-28.308,M,18.0,1015*4C
$GPGGA,045151.90,3911.6401869,N,09634.4651918,W,4,12,0.9,318.838,M,-28.308,M,18.0,1015*4B
$GPGGA,045152.00,3911.6401955,N,09634.4651944,W,4,12,0.9,318.859,M,-28.308,M,19.0,1015*40
$GPGGA,045152.10,3911.6401910,N,09634.4651949,W,4,11,1.0,318.855,M,-28.308,M,19.0,1015*4A
$GPGGA,045152.20,3911.6401885,N,09634.4651918,W,4,11,1.0,318.839,M,-28.308,M,19.0,1015*4A
$GPGGA,045152.30,3911.6401817,N,09634.4651898,W,4,11,1.0,318.862,M,-28.308,M,19.0,1015*47
$GPGGA,045152.40,3911.6401858,N,09634.4651938,W,4,11,1.0,318.867,M,-28.308,M,19.0,1015*45
$GPGGA,045152.50,3911.6401848,N,09634.4651933,W,4,11,1.0,318.858,M,-28.308,M,19.0,1015*42
$GPGGA,045152.60,3911.6401863,N,09634.4651928,W,4,11,1.0,318.845,M,-28.308,M,19.0,1015*4E
$GPGGA,045152.70,3911.6401902,N,09634.4651927,W,4,11,1.0,318.855,M,-28.308,M,19.0,1015*47
$GPGGA,045152.80,3911.6401875,N,09634.4651886,W,4,11,1.0,318.853,M,-28.308,M,19.0,1015*45
$GPGGA,045152.90,3911.6401901,N,09634.4651875,W,4,11,1.0,318.846,M,-28.308,M,19.0,1015*4E
$GPGGA,045153.00,3911.6401874,N,09634.4651895,W,4,11,1.0,318.841,M,-28.308,M,20.0,1015*46
$GPGGA,045153.10,3911.6401896,N,09634.4651928,W,4,12,0.9,318.857,M,-28.308,M,20.0,1015*40
$GPGGA,045153.20,3911.6401861,N,09634.4651919,W,4,12,0.9,318.857,M,-28.308,M,20.0,1015*49
$GPGGA,045153.30,3911.6401868,N,09634.4651874,W,4,12,0.9,318.849,M,-28.308,M,20.0,1015*44
$GPGGA,045153.40,3911.6401909,N,09634.4651904,W,4,13,0.8,318.856,M,-28.308,M,20.0,1015*4D
$GPGGA,045153.50,3911.6401844,N,09634.4651864,W,4,13,0.8,318.843,M,-28.308,M,20.0,1015*47
$GPGGA,045153.60,3911.6401930,N,09634.4651902,W,4,13,0.8,318.860,M,-28.308,M,20.0,1015*46
$GPGGA,045153.70,3911.6401883,N,09634.4651891,W,4,13,0.8,318.855,M,-28.308,M,20.0,1015*43
$GPGGA,045153.80,3911.6401899,N,09634.4651871,W,4,13,0.8,318.853,M,-28.308,M,20.0,1015*4F
$GPGGA,045153.90,3911.6401933,N,09634.4651887,W,4,13,0.8,318.851,M,-28.308,M,20.0,1015*44
$GPGGA,045154.00,3911.6401880,N,09634.4651892,W,4,13,0.8,318.862,M,-28.308,M,21.0,1015*46
$GPGGA,045154.10,3911.6401932,N,09634.4651893,W,4,13,0.8,318.855,M,-28.308,M,21.0,1015*4A
$GPGGA,045154.20,3911.6401890,N,09634.4651923,W,4,13,0.8,318.860,M,-28.308,M,21.0,1015*4C
$GPGGA,045154.30,3911.6401886,N,09634.4651920,W,4,13,0.8,318.854,M,-28.308,M,21.0,1015*4E
$GPGGA,045154.40,3911.6401889,N,09634.4651838,W,4,13,0.8,318.839,M,-28.308,M,21.0,1015*45
$GPGGA,045154.50,3911.6401966,N,09634.4651909,W,4,13,0.8,318.871,M,-28.308,M,21.0,1015*4B
$GPGGA,045154.60,3911.6401916,N,09634.4651868,W,4,13,0.8,318.833,M,-28.308,M,21.0,1015*4F
$GPGGA,045154.70,3911.6401937,N,09634.4651884,W,4,13,0.8,318.861,M,-28.308,M,21.0,1015*48
$GPGGA,045154.80,3911.6401875,N,09634.4651848,W,4,13,0.8,318.845,M,-28.308,M,21.0,1015*46
$GPGGA,045154.90,3911.6401900,N,09634.4651922,W,4,13,0.8,318.861,M,-28.308,M,21.0,1015*4F
$GPGGA,045155.00,3911.6401920,N,09634.4651855,W,4,13,0.8,318.848,M,-28.308,M,22.0,1015*4C
$GPGGA,045155.10,3911.6401885,N,09634.4651880,W,4,13,0.8,318.850,M,-28.308,M,22.0,1015*42
$GPGGA,045155.20,3911.6401941,N,09634.4651845,W,4,13,0.8,318.848,M,-28.308,M,22.0,1015*48
$GPGGA,045155.30,3911.6401913,N,09634.4651831,W,4,13,0.8,318.837,M,-28.308,M,22.0,1015*45
$GPGGA,045155.40,3911.6401914,N,09634.4651871,W,4,13,0.8,318.851,M,-28.308,M,22.0,1015*41
$GPGGA,045155.50,3911.6401883,N,09634.4651881,W,4,13,0.8,318.844,M,-28.308,M,22.0,1015*44
$GPGGA,045155.60,3911.6401886,N,09634.4651889,W,4,13,0.8,318.848,M,-28.308,M,22.0,1015*46
$GPGGA,045155.70,3911.6401903,N,09634.4651876,W,4,13,0.8,318.855,M,-28.308,M,22.0,1015*47
$GPGGA,045155.80,3911.6401910,N,09634.4651819,W,4,13,0.8,318.846,M,-28.308,M,22.0,1015*41
$GPGGA,045155.90,3911.6401898,N,09634.4651871,W,4,13,0.8,318.854,M,-28.308,M,22.0,1015*4C
$GPGGA,045156.00,3911.6401852,N,09634.4651860,W,4,13,0.8,318.849,M,-28.308,M,23.0,1015*4D
$GPGGA,045156.10,3911.6401918,N,09634.4651921,W,4,13,0.8,318.865,M,-28.308,M,23.0,1015*49
$GPGGA,045156.20,3911.6401770,N,09634.4651867,W,4,13,0.8,318.795,M,-28.308,M,13.0,1015*4A
$GPGGA,045156.30,3911.6401751,N,09634.4651898,W,4,13,0.8,318.791,M,-28.308,M,13.0,1015*4C
$GPGGA,045156.40,3911.6401755,N,09634.4651895,W,4,13,0.8,318.802,M,-28.308,M,13.0,1015*47
$GPGGA,045156.50,3911.6401777,N,09634.4651859,W,4,13,0.8,318.796,M,-28.308,M,13.0,1015*44
$GPGGA,045156.60,3911.6401753,N,09634.4651849,W,4,13,0.8,318.796,M,-28.308,M,13.0,1015*40
$GPGGA,045156.70,3911.6401782,N,09634.4651879,W,4,13,0.8,318.798,M,-28.308,M,13.0,1015*40
$GPGGA,045156.80,3911.6401751,N,09634.4651873,W,4,13,0.8,318.789,M,-28.308,M,13.0,1015*4B
$GPGGA,045156.90,3911.6401726,N,09634.4651921,W,4,13,0.8,318.787,M,-28.308,M,13.0,1015*42
$GPGGA,045157.00,3911.6401778,N,09634.4651872,W,4,13,0.8,318.795,M,-28.308,M,14.0,1015*42
$GPGGA,045157.10,3911.6401759,N,09634.4651931,W,4,13,0.8,318.799,M,-28.308,M,14.0,1015*4A
$GPGGA,045157.20,3911.6401741,N,09634.4651882,W,4,13,0.8,318.788,M,-28.308,M,14.0,1015*49
$GPGGA,045157.30,3911.6401758,N,09634.4651871,W,4,13,0.8,318.788,M,-28.308,M,14.0,1015*4C
$GPGGA,045157.40,3911.6401737,N,09634.4651875,W,4,13,0.8,318.791,M,-28.308,M,14.0,1015*4E
$GPGGA,045157.50,3911.6401748,N,09634.4651874,W,4,13,0.8,318.800,M,-28.308,M,14.0,1015*41
$GPGGA,045157.60,3911.6401750,N,09634.4651850,W,4,13,0.8,318.792,M,-28.308,M,14.0,1015*49
$GPGGA,045157.70,3911.6401756,N,09634.4651846,W,4,13,0.8,318.792,M,-28.308,M,14.0,1015*49
$GPGGA,045157.80,3911.6401745,N,09634.4651853,W,4,13,0.8,318.787,M,-28.308,M,14.0,1015*44
$GPGGA,045157.90,3911.6401748,N,09634.4651865,W,4,13,0.8,318.800,M,-28.308,M,14.0,1015*4D
$GPGGA,045158.00,3911.6401725,N,09634.4651864,W,4,13,0.8,318.796,M,-28.308,M,15.0,1015*40
$GPGGA,045158.10,3911.6401716,N,09634.4651858,W,4,13,0.8,318.783,M,-28.308,M,15.0,1015*4A
$GPGGA,045158.20,3911.6401770,N,09634.4651869,W,4,13,0.8,318.784,M,-28.308,M,15.0,1015*4C
$GPGGA,045158.30,3911.6401738,N,09634.4651843,W,4,13,0.8,318.793,M,-28.308,M,15.0,1015*4F
$GPGGA,045158.40,3911.6401713,N,09634.4651862,W,4,13,0.8,318.776,M,-28.308,M,15.0,1015*49
$GPGGA,045158.50,3911.6401740,N,09634.4651837,W,4,13,0.8,318.783,M,-28.308,M,15.0,1015*44
$GPGGA,045158.60,3911.6401736,N,09634.4651882,W,4,13,0.8,318.793,M,-28.308,M,15.0,1015*49
$GPGGA,045158.70,3911.6401737,N,09634.4651886,W,4,13,0.8,318.794,M,-28.308,M,15.0,1015*4A
$GPGGA,045158.80,3911.6401736,N,09634.4651881,W,4,13,0.8,318.780,M,-28.308,M,15.0,1015*46
$GPGGA,045158.90,3911.6401693,N,09634.4651852,W,4,13,0.8,318.773,M,-28.308,M,15.0,1015*4B
$GPGGA,045159.00,3911.6401750,N,09634.4651874,W,4,13,0.8,318.786,M,-28.308,M,16.0,1015*40
$GPGGA,045159.10,3911.6401741,N,09634.4651869,W,4,13,0.8,318.782,M,-28.308,M,16.0,1015*49
$GPGGA,045159.20,3911.6401721,N,09634.4651886,W,4,13,0.8,318.784,M,-28.308,M,16.0,1015*4B
$GPGGA,045159.30,3911.6401736,N,09634.4651904,W,4,13,0.8,318.790,M,-28.308,M,16.0,1015*42
$GPGGA,045159.40,3911.6401757,N,09634.4651883,W,4,13,0.8,318.779,M,-28.308,M,16.0,1015*4B
$GPGGA,045159.50,3911.6401736,N,09634.4651891,W,4,13,0.8,318.776,M,-28.308,M,16.0,1015*41
$GPGGA,045159.60,3911.6401699,N,09634.4651890,W,4,13,0.8,318.774,M,-28.308,M,16.0,1015*45
$GPGGA,045159.70,3911.6401742,N,09634.4651890,W,4,13,0.8,318.780,M,-28.308,M,16.0,1015*48
$GPGGA,045159.80,3911.6401736,N,09634.4651894,W,4,13,0.8,318.785,M,-28.308,M,16.0,1015*45
$GPGGA,045159.90,3911.6401701,N,09634.4651930,W,4,13,0.8,318.783,M,-28.308,M,16.0,1015*49
$GPGGA,045200.00,3911.6401727,N,09634.4651944,W,4,13,0.8,318.784,M,-28.308,M,17.0,1015*4E
$GPGGA,045200.10,3911.6401714,N,09634.4651915,W,4,13,0.8,318.775,M,-28.308,M,17.0,1015*45
$GPGGA,045200.20,3911.6401748,N,09634.4651934,W,4,13,0.8,318.787,M,-28.308,M,17.0,1015*41
$GPGGA,045200.30,3911.6401742,N,09634.4651892,W,4,13,0.8,318.778,M,-28.308,M,17.0,1015*47
$GPGGA,045200.40,3911.6401727,N,09634.4651903,W,4,13,0.8,318.768,M,-28.308,M,17.0,1015*4B
$GPGGA,045200.50,3911.6401722,N,09634.4651927,W,4,13,0.8,318.776,M,-28.308,M,17.0,1015*46
$GPGGA,045200.60,3911.6401724,N,09634.4651921,W,4,13,0.8,318.777,M,-28.308,M,17.0,1015*44
$GPGGA,045200.70,3911.6401708,N,09634.4651908,W,4,13,0.8,318.763,M,-28.308,M,17.0,1015*45
$GPGGA,045200.80,3911.6401698,N,09634.4651915,W,4,13,0.8,318.766,M,-28.308,M,17.0,1015*4B
$GPGGA,045200.90,3911.6401732,N,09634.4651869,W,4,13,0.8,318.762,M,-28.308,M,17.0,1015*45
$GPGGA,045201.00,3911.6401688,N,09634.4651929,W,4,13,0.8,318.776,M,-28.308,M,18.0,1015*42
$GPGGA,045201.10,3911.6401707,N,09634.4651879,W,4,13,0.8,318.762,M,-28.308,M,18.0,1015*44
$GPGGA,045201.20,3911.6401718,N,09634.4651927,W,4,13,0.8,318.761,M,-28.308,M,18.0,1015*40
$GPGGA,045201.30,3911.6401713,N,09634.4651930,W,4,13,0.8,318.763,M,-28.308,M,18.0,1015*4E
$GPGGA,045201.40,3911.6401857,N,09634.4651927,W,4,13,0.8,318.747,M,-28.308,M,8.0,1015*77
$GPGGA,045201.50,3911.6401842,N,09634.4651909,W,4,13,0.8,318.737,M,-28.308,M,8.0,1015*79
$GPGGA,045201.60,3911.6401843,N,09634.4651944,W,4,13,0.8,318.746,M,-28.308,M,8.0,1015*74
$GPGGA,045201.70,3911.6401807,N,09634.4651906,W,4,13,0.8,318.723,M,-28.308,M,8.0,1015*70
$GPGGA,045201.80,3911.6401866,N,09634.4651933,W,4,13,0.8,318.735,M,-28.308,M,8.0,1015*79
$GPGGA,045201.90,3911.6401875,N,09634.4651919,W,4,13,0.8,318.739,M,-28.308,M,8.0,1015*7E
$GPGGA,045202.00,3911.6401884,N,09634.4651941,W,4,13,0.8,318.755,M,-28.308,M,9.0,1015*7C
$GPGGA,045202.10,3911.6401868,N,09634.4651936,W,4,13,0.8,318.739,M,-28.308,M,9.0,1015*75
$GPGGA,045202.20,3911.6401844,N,09634.4651929,W,4,13,0.8,318.738,M,-28.308,M,9.0,1015*77
$GPGGA,045202.30,3911.6401844,N,09634.4651957,W,4,13,0.8,318.746,M,-28.308,M,9.0,1015*76
$GPGGA,045202.40,3911.6401869,N,09634.4651958,W,4,13,0.8,318.746,M,-28.308,M,9.0,1015*71
$GPGGA,045202.50,3911.6401882,N,09634.4651910,W,4,13,0.8,318.732,M,-28.308,M,9.0,1015*7A
$GPGGA,045202.60,3911.6401864,N,09634.4651991,W,4,13,0.8,318.747,M,-28.308,M,9.0,1015*7A
$GPGGA,045202.70,3911.6401844,N,09634.4651937,W,4,13,0.8,318.727,M,-28.308,M,9.0,1015*73
$GPGGA,045202.80,3911.6401843,N,09634.4651963,W,4,13,0.8,318.733,M,-28.308,M,9.0,1015*7F
$GPGGA,045202.90,3911.6401814,N,09634.4651955,W,4,13,0.8,318.737,M,-28.308,M,9.0,1015*7D
$GPGGA,045203.00,3911.6401848,N,09634.4651972,W,4,13,0.8,318.733,M,-28.308,M,10.0,1015*45
$GPGGA,045203.10,3911.6401848,N,09634.4651962,W,4,13,0.8,318.730,M,-28.308,M,10.0,1015*46
$GPGGA,045203.20,3911.6401861,N,09634.4651940,W,4,13,0.8,318.732,M,-28.308,M,10.0,1015*4C
$GPGGA,045203.30,3911.6401902,N,09634.4651953,W,4,13,0.8,318.733,M,-28.308,M,10.0,1015*4A
$GPGGA,045203.40,3911.6401877,N,09634.4651968,W,4,13,0.8,318.745,M,-28.308,M,10.0,1015*47
$GPGGA,045203.50,3911.6401890,N,09634.4651945,W,4,13,0.8,318.747,M,-28.308,M,10.0,1015*42
$GPGGA,045203.60,3911.6401878,N,09634.4651971,W,4,13,0.8,318.745,M,-28.308,M,10.0,1015*42
$GPGGA,045203.70,3911.6401843,N,09634.4651950,W,4,13,0.8,318.732,M,-28.308,M,10.0,1015*48
$GPGGA,045203.80,3911.6401882,N,09634.4651960,W,4,13,0.8,318.735,M,-28.308,M,10.0,1015*4E
$GPGGA,045203.90,3911.6401852,N,09634.4651960,W,4,13,0.8,318.734,M,-28.308,M,10.0,1015*43
$GPGGA,045204.00,3911.6401822,N,09634.4651930,W,4,13,0.8,318.734,M,-28.308,M,11.0,1015*4E
$GPGGA,045204.10,3911.6401862,N,09634.4651984,W,4,13,0.8,318.748,M,-28.308,M,11.0,1015*4F
$GPGGA,045204.20,3911.6401839,N,09634.4651945,W,4,13,0.8,318.728,M,-28.308,M,11.0,1015*49
$GPGGA,045204.30,3911.6401899,N,09634.4651943,W,4,13,0.8,318.737,M,-28.308,M,11.0,1015*4A
$GPGGA,045204.40,3911.6401839,N,09634.4651952,W,4,13,0.8,318.721,M,-28.308,M,11.0,1015*40
$GPGGA,045204.50,3911.6401824,N,09634.4651930,W,4,13,0.8,318.716,M,-28.308,M,11.0,1015*4D
$GPGGA,045204.60,3911.6401864,N,09634.4651941,W,4,13,0.8,318.730,M,-28.308,M,11.0,1015*48
$GPGGA,045204.70,3911.6401873,N,09634.4651972,W,4,13,0.8,318.733,M,-28.308,M,11.0,1015*4C
$GPGGA,045204.80,3911.6401902,N,09634.4651948,W,4,13,0.8,318.731,M,-28.308,M,11.0,1015*4F
$GPGGA,045204.90,3911.6401915,N,09634.4651992,W,4,13,0.8,318.746,M,-28.308,M,11.0,1015*4F
$GPGGA,045205.00,3911.6401895,N,09634.4651964,W,4,13,0.8,318.720,M,-28.308,M,12.0,1015*44
$GPGGA,045205.10,3911.6401943,N,09634.4651992,W,4,13,0.8,318.742,M,-28.308,M,12.0,1015*42
$GPGGA,045205.20,3911.6401955,N,09634.4651984,W,4,13,0.8,318.741,M,-28.308,M,12.0,1015*42
$GPGGA,045205.30,3911.6401910,N,09634.4651945,W,4,13,0.8,318.741,M,-28.308,M,12.0,1015*4F
$GPGGA,045205.40,3911.6401904,N,09634.4651950,W,4,13,0.8,318.745,M,-28.308,M,12.0,1015*4D
$GPGGA,045205.50,3911.6401886,N,09634.4651931,W,4,13,0.8,318.729,M,-28.308,M,12.0,1015*4A
$GPGGA,045205.60,3911.6401923,N,09634.4651948,W,4,13,0.8,318.732,M,-28.308,M,12.0,1015*43
$GPGGA,045205.70,3911.6401918,N,09634.4651972,W,4,13,0.8,318.733,M,-28.308,M,12.0,1015*42
$GPGGA,045205.80,3911.6401924,N,09634.4651965,W,4,13,0.8,318.733,M,-28.308,M,12.0,1015*44
$GPGGA,045205.90,3911.6401956,N,09634.4651949,W,4,13,0.8,318.713,M,-28.308,M,12.0,1015*4C
$GPGGA,045206.00,3911.6401914,N,09634.4651953,W,4,13,0.8,318.699,M,-28.308,M,13.0,1015*49
$GPGGA,045206.10,3911.6401946,N,09634.4651922,W,4,13,0.8,318.692,M,-28.308,M,13.0,1015*42
$GPGGA,045206.20,3911.6401923,N,09634.4651943,W,4,13,0.8,318.694,M,-28.308,M,13.0,1015*43
$GPGGA,045206.30,3911.6401920,N,09634.4651958,W,4,13,0.8,318.694,M,-28.308,M,13.0,1015*4B
$GPGGA,045206.40,3911.6401966,N,09634.4651930,W,4,13,0.8,318.695,M,-28.308,M,13.0,1015*41
$GPGGA,045206.50,3911.6401972,N,09634.4651955,W,4,13,0.8,318.698,M,-28.308,M,13.0,1015*4B
$GPGGA,045206.60,3911.6401941,N,09634.4651932,W,4,13,0.8,318.686,M,-28.308,M,13.0,1015*46
$GPGGA,045206.70,3911.6401955,N,09634.4651922,W,4,13,0.8,318.681,M,-28.308,M,13.0,1015*44
$GPGGA,045206.80,3911.6401976,N,09634.4651953,W,4,13,0.8,318.700,M,-28.308,M,13.0,1015*44
$GPGGA,045206.90,3911.6401993,N,09634.4651999,W,4,13,0.8,318.705,M,-28.308,M,13.0,1015*4D
$GPGGA,045207.00,3911.6401916,N,09634.4651955,W,4,13,0.8,318.685,M,-28.308,M,14.0,1015*46
$GPGGA,045207.10,3911.6401917,N,09634.4651963,W,4,13,0.8,318.684,M,-28.308,M,14.0,1015*42
$GPGGA,045207.20,3911.6401949,N,09634.4651984,W,4,13,0.8,318.694,M,-28.308,M,14.0,1015*42
$GPGGA,045207.30,3911.6402010,N,09634.4651991,W,4,13,0.8,318.668,M,-28.308,M,14.0,1015*42
$GPGGA,045207.40,3911.6401968,N,09634.4651979,W,4,13,0.8,318.686,M,-28.308,M,14.0,1015*46
$GPGGA,045207.50,3911.6401970,N,09634.4651945,W,4,13,0.8,318.665,M,-28.308,M,14.0,1015*4C
$GPGGA,045207.60,3911.6402012,N,09634.4651977,W,4,13,0.8,318.679,M,-28.308,M,14.0,1015*4D
$GPGGA,045207.70,3911.6401960,N,09634.4651997,W,4,13,0.8,318.671,M,-28.308,M,14.0,1015*45
$GPGGA,045207.80,3911.6401988,N,09634.4652022,W,4,13,0.8,318.681,M,-28.308,M,14.0,1015*47
$GPGGA,045207.90,3911.6401995,N,09634.4652001,W,4,13,0.8,318.674,M,-28.308,M,14.0,1015*41
$GPGGA,045208.00,3911.6401967,N,09634.4652006,W,4,13,0.8,318.667,M,-28.308,M,15.0,1015*4E
$GPGGA,045208.10,3911.6402046,N,09634.4652013,W,4,13,0.8,318.677,M,-28.308,M,15.0,1015*43
$GPGGA,045208.20,3911.6402033,N,09634.4652024,W,4,13,0.8,318.682,M,-28.308,M,15.0,1015*4C
$GPGGA,045208.30,3911.6402010,N,09634.4652032,W,4,13,0.8,318.673,M,-28.308,M,15.0,1015*45
$GPGGA,045208.40,3911.6401998,N,09634.4652011,W,4,13,0.8,318.661,M,-28.308,M,15.0,1015*4A
$GPGGA,045208.50,3911.6401983,N,09634.4652001,W,4,13,0.8,318.659,M,-28.308,M,15.0,1015*4B
$GPGGA,045208.60,3911.6402001,N,09634.4651994,W,4,13,0.8,318.665,M,-28.308,M,15.0,1015*41
$GPGGA,045208.70,3911.6401998,N,09634.4652020,W,4,13,0.8,318.667,M,-28.308,M,15.0,1015*4D
