$GPGST,042944.60,0.092,0.044,0.027,295.507,0.031,0.042,0.076*59
$GPGGA,042944.70,3911.6402181,N,09634.4651967,W,4,11,1.0,318.958,M,-28.308,M,11.0,1015*4F
$GPGST,042944.70,0.092,0.044,0.027,295.507,0.031,0.042,0.076*58
$GPGGA,042944.80,3911.6402105,N,09634.4651966,W,4,11,1.0,318.958,M,-28.308,M,11.0,1015*4D
$GPGST,042944.80,0.092,0.044,0.027,295.507,0.031,0.042,0.076*57
$GPGGA,042944.90,3911.6402167,N,09634.4651980,W,4,11,1.0,318.970,M,-28.308,M,11.0,1015*4A
$GPGST,042944.90,0.092,0.044,0.027,295.507,0.031,0.042,0.076*56
$GPGGA,042945.00,3911.6402159,N,09634.4651922,W,4,11,1.0,318.955,M,-28.308,M,12.0,1015*43
$GPGST,042945.00,0.093,0.045,0.028,295.507,0.031,0.042,0.077*50
$GPGGA,042945.10,3911.6402121,N,09634.4651961,W,4,11,1.0,318.957,M,-28.308,M,12.0,1015*48
$GPGST,042945.10,0.093,0.045,0.028,295.507,0.031,0.042,0.077*51
$GPGGA,042945.20,3911.6402094,N,09634.4651953,W,4,11,1.0,318.949,M,-28.308,M,12.0,1015*4A
$GPGST,042945.20,0.093,0.045,0.028,295.507,0.031,0.042,0.077*52
$GPGGA,042945.30,3911.6402069,N,09634.4651943,W,4,11,1.0,318.950,M,-28.308,M,12.0,1015*40
$GPGST,042945.30,0.093,0.045,0.028,295.507,0.031,0.042,0.077*53
$GPGGA,042945.40,3911.6402101,N,09634.4651979,W,4,11,1.0,318.950,M,-28.308,M,12.0,1015*41
$GPGST,042945.40,0.093,0.045,0.028,295.507,0.031,0.042,0.077*54
$GPGGA,042945.50,3911.6402113,N,09634.4651956,W,4,11,1.0,318.945,M,-28.308,M,12.0,1015*4A
$GPGST,042945.50,0.093,0.045,0.028,295.507,0.031,0.042,0.077*55
$GPGGA,042945.60,3911.6402145,N,09634.4651950,W,4,11,1.0,318.962,M,-28.308,M,12.0,1015*49
$GPGST,042945.60,0.093,0.045,0.028,295.507,0.031,0.042,0.077*56
$GPGGA,042945.70,3911.6402120,N,09634.4651952,W,4,11,1.0,318.954,M,-28.308,M,12.0,1015*4C
$GPGST,042945.70,0.093,0.045,0.028,295.507,0.031,0.042,0.077*57
$GPGGA,042945.80,3911.6402056,N,09634.4651953,W,4,11,1.0,318.936,M,-28.308,M,12.0,1015*46
$GPGST,042945.80,0.093,0.045,0.028,295.507,0.031,0.042,0.077*58
$GPGGA,042945.90,3911.6402113,N,09634.4651957,W,4,11,1.0,318.959,M,-28.308,M,12.0,1015*4A
$GPGST,042945.90,0.093,0.045,0.028,295.507,0.031,0.042,0.077*59
$GPGGA,042946.00,3911.6402074,N,09634.4651974,W,4,11,1.0,318.948,M,-28.308,M,13.0,1015*40
$GPGST,042946.00,0.093,0.045,0.028,295.507,0.031,0.042,0.077*53
$GPGGA,042946.10,3911.6402095,N,09634.4651942,W,4,11,1.0,318.956,M,-28.308,M,13.0,1015*44
$GPGST,042946.10,0.093,0.045,0.028,295.507,0.031,0.042,0.077*52
$GPGGA,042946.20,3911.6402105,N,09634.4651911,W,4,11,1.0,318.973,M,-28.308,M,13.0,1015*4E
$GPGST,042946.20,0.093,0.045,0.028,295.507,0.031,0.042,0.077*51
$GPGGA,042946.30,3911.6402099,N,09634.4651927,W,4,11,1.0,318.961,M,-28.308,M,13.0,1015*4D
$GPGST,042946.30,0.093,0.045,0.028,295.507,0.031,0.042,0.077*50
$GPGGA,042946.40,3911.6402085,N,09634.4651910,W,4,11,1.0,318.963,M,-28.308,M,13.0,1015*41
$GPGST,042946.40,0.093,0.045,0.028,295.507,0.031,0.042,0.077*57
$GPGGA,042946.50,3911.6402058,N,09634.4651987,W,4,11,1.0,318.959,M,-28.308,M,13.0,1015*47
$GPGST,042946.50,0.093,0.045,0.028,295.507,0.031,0.042,0.077*56
$GPGGA,042946.60,3911.6402099,N,09634.4651902,W,4,11,1.0,318.964,M,-28.308,M,13.0,1015*4A
$GPGST,042946.60,0.093,0.045,0.028,295.507,0.031,0.042,0.077*55
$GPGGA,042946.70,3911.6402074,N,09634.4651953,W,4,11,1.0,318.957,M,-28.308,M,13.0,1015*4C
$GPGST,042946.70,0.093,0.045,0.028,295.507,0.031,0.042,0.077*54
$GPGGA,042946.80,3911.6402173,N,09634.4651918,W,4,11,1.0,318.979,M,-28.308,M,13.0,1015*46
$GPGST,042946.80,0.093,0.045,0.028,295.507,0.031,0.042,0.077*5B
$GPGGA,042946.90,3911.6402092,N,09634.4651911,W,4,11,1.0,318.966,M,-28.308,M,13.0,1015*4E
$GPGST,042946.90,0.093,0.045,0.028,295.507,0.031,0.042,0.077*5A
$GPGGA,042947.00,3911.6402111,N,09634.4651925,W,4,11,1.0,318.955,M,-28.308,M,14.0,1015*4C
$GPGST,042947.00,0.093,0.045,0.028,295.507,0.032,0.042,0.077*51
$GPGGA,042947.10,3911.6402110,N,09634.4651925,W,4,11,1.0,318.959,M,-28.308,M,14.0,1015*40
$GPGST,042947.10,0.093,0.045,0.028,295.507,0.032,0.042,0.077*50
$GPGGA,042947.20,3911.6402082,N,09634.4651944,W,4,11,1.0,318.961,M,-28.308,M,14.0,1015*45
$GPGST,042947.20,0.093,0.045,0.028,295.507,0.032,0.042,0.077*53
$GPGGA,042947.30,3911.6402091,N,09634.4651933,W,4,11,1.0,318.971,M,-28.308,M,14.0,1015*47
$GPGST,042947.30,0.093,0.045,0.028,295.507,0.032,0.042,0.077*52
$GPGGA,042947.40,3911.6402068,N,09634.4651962,W,4,11,1.0,318.953,M,-28.308,M,14.0,1015*42
$GPGST,042947.40,0.093,0.045,0.028,295.507,0.032,0.042,0.077*55
$GPGGA,042947.50,3911.6402075,N,09634.4651953,W,4,11,1.0,318.955,M,-28.308,M,14.0,1015*4B
$GPGST,042947.50,0.093,0.045,0.028,295.507,0.032,0.042,0.077*54
$GPGGA,042947.60,3911.6402076,N,09634.4651934,W,4,11,1.0,318.956,M,-28.308,M,14.0,1015*49
$GPGST,042947.60,0.093,0.045,0.028,295.507,0.032,0.042,0.077*57
$GPGGA,042947.70,3911.6402091,N,09634.4651941,W,4,11,1.0,318.957,M,-28.308,M,14.0,1015*42
$GPGST,042947.70,0.093,0.045,0.028,295.507,0.032,0.042,0.077*56
$GPGGA,042947.80,3911.6402129,N,09634.4651925,W,4,11,1.0,318.966,M,-28.308,M,14.0,1015*4F
$GPGST,042947.80,0.093,0.045,0.028,295.507,0.032,0.042,0.077*59
$GPGGA,042947.90,3911.6402039,N,09634.4651943,W,4,11,1.0,318.961,M,-28.308,M,14.0,1015*49
$GPGST,042947.90,0.093,0.045,0.028,295.507,0.032,0.042,0.077*58
$GPGGA,042948.00,3911.6402135,N,09634.4651918,W,4,11,1.0,318.971,M,-28.308,M,15.0,1015*4C
$GPGST,042948.00,0.094,0.045,0.028,295.507,0.032,0.042,0.077*59
$GPGGA,042948.10,3911.6402038,N,09634.4651927,W,4,11,1.0,318.975,M,-28.308,M,15.0,1015*49
$GPGST,042948.10,0.094,0.045,0.028,295.507,0.032,0.042,0.077*58
$GPGGA,042948.20,3911.6402015,N,09634.4651998,W,4,11,1.0,318.961,M,-28.308,M,15.0,1015*44
$GPGST,042948.20,0.094,0.045,0.028,295.507,0.032,0.042,0.077*5B
$GPGGA,042948.30,3911.6402085,N,09634.4651910,W,4,11,1.0,318.981,M,-28.308,M,15.0,1015*42
$GPGST,042948.30,0.094,0.045,0.028,295.507,0.032,0.042,0.077*5A
$GPGGA,042948.40,3911.6402078,N,09634.4651936,W,4,11,1.0,318.970,M,-28.308,M,15.0,1015*4D
$GPGST,042948.40,0.094,0.045,0.028,295.507,0.032,0.042,0.077*5D
$GPGGA,042948.50,3911.6402089,N,09634.4651918,W,4,11,1.0,318.967,M,-28.308,M,15.0,1015*48
$GPGST,042948.50,0.094,0.045,0.028,295.507,0.032,0.042,0.077*5C
$GPGGA,042948.60,3911.6402103,N,09634.4651956,W,4,11,1.0,318.962,M,-28.308,M,15.0,1015*47
$GPGST,042948.60,0.094,0.045,0.028,295.507,0.032,0.042,0.077*5F
$GPGGA,042948.70,3911.6402062,N,09634.4651906,W,4,11,1.0,318.963,M,-28.308,M,15.0,1015*44
$GPGST,042948.70,0.094,0.045,0.028,295.507,0.032,0.042,0.077*5E
$GPGGA,042948.80,3911.6402094,N,09634.4651945,W,4,11,1.0,318.968,M,-28.308,M,15.0,1015*4E
$GPGST,042948.80,0.094,0.045,0.028,295.507,0.032,0.042,0.077*51
$GPGGA,042948.90,3911.6402095,N,09634.4651943,W,4,11,1.0,318.976,M,-28.308,M,15.0,1015*47
$GPGST,042948.90,0.094,0.045,0.028,295.507,0.032,0.042,0.077*50
$GPGGA,042949.00,3911.6402069,N,09634.4651978,W,4,11,1.0,318.972,M,-28.308,M,16.0,1015*43
$GPGST,042949.00,0.094,0.045,0.028,295.507,0.032,0.043,0.078*56
$GPGGA,042949.10,3911.6402170,N,09634.4651893,W,4,11,1.0,318.983,M,-28.308,M,16.0,1015*41
$GPGST,042949.10,0.094,0.045,0.028,295.507,0.032,0.043,0.078*57
$GPGGA,042949.20,3911.6402057,N,09634.4651975,W,4,11,1.0,318.968,M,-28.308,M,16.0,1015*4A
$GPGST,042949.20,0.094,0.045,0.028,295.507,0.032,0.043,0.078*54
$GPGGA,042949.30,3911.6402083,N,09634.4651911,W,4,11,1.0,318.981,M,-28.308,M,16.0,1015*47
$GPGST,042949.30,0.094,0.045,0.028,295.507,0.032,0.043,0.078*55
$GPGGA,042949.40,3911.6402063,N,09634.4651973,W,4,11,1.0,318.974,M,-28.308,M,16.0,1015*40
$GPGST,042949.40,0.094,0.045,0.028,295.507,0.032,0.043,0.078*52
$GPGGA,042949.50,3911.6402093,N,09634.4651911,W,4,11,1.0,318.980,M,-28.308,M,16.0,1015*41
$GPGST,042949.50,0.094,0.045,0.028,295.507,0.032,0.043,0.078*53
$GPGGA,042949.60,3911.6402049,N,09634.4651969,W,4,11,1.0,318.970,M,-28.308,M,16.0,1015*45
$GPGST,042949.60,0.094,0.045,0.028,295.507,0.032,0.043,0.078*50
$GPGGA,042949.70,3911.6402059,N,09634.4651942,W,4,11,1.0,318.980,M,-28.308,M,16.0,1015*43
$GPGST,042949.70,0.094,0.045,0.028,295.507,0.032,0.043,0.078*51
$GPGGA,042949.80,3911.6402087,N,09634.4651940,W,4,11,1.0,318.980,M,-28.308,M,16.0,1015*4D
$GPGST,042949.80,0.094,0.045,0.028,295.507,0.032,0.043,0.078*5E
$GPGGA,042949.90,3911.6402076,N,09634.4651940,W,4,11,1.0,318.973,M,-28.308,M,16.0,1015*4E
$GPGST,042949.90,0.094,0.045,0.028,295.507,0.032,0.043,0.078*5F
$GPGGA,042950.00,3911.6402079,N,09634.4651959,W,4,11,1.0,318.968,M,-28.308,M,17.0,1015*43
$GPGST,042950.00,0.095,0.045,0.028,295.507,0.032,0.043,0.078*5F
$GPGGA,042950.10,3911.6402062,N,09634.4651987,W,4,11,1.0,318.968,M,-28.308,M,17.0,1015*4B
$GPGST,042950.10,0.095,0.045,0.028,295.507,0.032,0.043,0.078*5E
$GPGGA,042950.20,3911.6402032,N,09634.4652016,W,4,11,1.0,318.951,M,-28.308,M,17.0,1015*45
$GPGST,042950.20,0.095,0.045,0.028,295.507,0.032,0.043,0.078*5D
$GPGGA,042950.30,3911.6402073,N,09634.4651959,W,4,11,1.0,318.968,M,-28.308,M,17.0,1015*4A
$GPGST,042950.30,0.095,0.045,0.028,295.507,0.032,0.043,0.078*5C
$GPGGA,042950.40,3911.6402077,N,09634.4651923,W,4,11,1.0,318.972,M,-28.308,M,17.0,1015*4F
$GPGST,042950.40,0.095,0.045,0.028,295.507,0.032,0.043,0.078*5B
$GPGGA,042950.50,3911.6402078,N,09634.4651958,W,4,11,1.0,318.984,M,-28.308,M,17.0,1015*44
$GPGST,042950.50,0.095,0.045,0.028,295.507,0.032,0.043,0.078*5A
$GPGGA,042950.60,3911.6402077,N,09634.4651915,W,4,11,1.0,318.969,M,-28.308,M,17.0,1015*42
$GPGST,042950.60,0.095,0.045,0.028,295.507,0.032,0.043,0.078*59
$GPGGA,042950.70,3911.6402080,N,09634.4651926,W,4,11,1.0,318.980,M,-28.308,M,17.0,1015*4C
$GPGST,042950.70,0.095,0.045,0.028,295.507,0.032,0.043,0.078*58
$GPGGA,042950.80,3911.6402022,N,09634.4652003,W,4,11,1.0,318.980,M,-28.308,M,17.0,1015*46
$GPGST,042950.80,0.095,0.045,0.028,295.507,0.032,0.043,0.078*57
$GPGGA,042950.90,3911.6402146,N,09634.4651918,W,4,11,1.0,318.989,M,-28.308,M,17.0,1015*4D
$GPGST,042950.90,0.095,0.045,0.028,295.507,0.032,0.043,0.078*56
$GPGGA,042951.00,3911.6402043,N,09634.4651934,W,4,11,1.0,318.968,M,-28.308,M,18.0,1015*4F
$GPGST,042951.00,0.095,0.046,0.028,295.507,0.032,0.043,0.078*5D
$GPGGA,042951.10,3911.6402110,N,09634.4651940,W,4,11,1.0,318.976,M,-28.308,M,18.0,1015*45
$GPGST,042951.10,0.095,0.046,0.028,295.507,0.032,0.043,0.078*5C
$GPGGA,042951.20,3911.6402027,N,09634.4651948,W,4,11,1.0,318.979,M,-28.308,M,18.0,1015*44
$GPGST,042951.20,0.095,0.046,0.028,295.507,0.032,0.043,0.078*5F
$GPGGA,042951.30,3911.6402048,N,09634.4651962,W,4,11,1.0,318.984,M,-28.308,M,18.0,1015*46
$GPGST,042951.30,0.095,0.046,0.028,295.507,0.032,0.043,0.078*5E
$GPGGA,042951.40,3911.6402045,N,09634.4651989,W,4,11,1.0,318.987,M,-28.308,M,18.0,1015*4A
$GPGST,042951.40,0.095,0.046,0.028,295.507,0.032,0.043,0.078*59
$GPGGA,042951.50,3911.6402044,N,09634.4651969,W,4,11,1.0,318.978,M,-28.308,M,18.0,1015*44
$GPGST,042951.50,0.095,0.046,0.028,295.507,0.032,0.043,0.078*58
$GPGGA,042951.60,3911.6402076,N,09634.4651938,W,4,11,1.0,318.974,M,-28.308,M,18.0,1015*4E
$GPGST,042951.60,0.095,0.046,0.028,295.507,0.032,0.043,0.078*5B
$GPGGA,042951.70,3911.6402056,N,09634.4651921,W,4,11,1.0,318.971,M,-28.308,M,18.0,1015*40
$GPGST,042951.70,0.095,0.046,0.028,295.507,0.032,0.043,0.078*5A
$GPGGA,042951.80,3911.6402071,N,09634.4651920,W,4,11,1.0,318.982,M,-28.308,M,18.0,1015*47
$GPGST,042951.80,0.095,0.046,0.028,295.507,0.032,0.043,0.078*55
$GPGGA,042951.90,3911.6402043,N,09634.4651933,W,4,11,1.0,318.984,M,-28.308,M,18.0,1015*43
$GPGST,042951.90,0.095,0.046,0.028,295.507,0.032,0.043,0.078*54
$GPGGA,042952.00,3911.6402027,N,09634.4651953,W,4,11,1.0,318.975,M,-28.308,M,19.0,1015*42
$GPGST,042952.00,0.095,0.046,0.028,295.507,0.032,0.043,0.079*5F
$GPGGA,042952.10,3911.6402102,N,09634.4651881,W,4,11,1.0,318.997,M,-28.308,M,19.0,1015*47
$GPGST,042952.10,0.095,0.046,0.028,295.507,0.032,0.043,0.079*5E
$GPGGA,042952.20,3911.6402055,N,09634.4651929,W,4,11,1.0,318.984,M,-28.308,M,19.0,1015*46
$GPGST,042952.20,0.095,0.046,0.028,295.507,0.032,0.043,0.079*5D
$GPGGA,042952.30,3911.6402021,N,09634.4651928,W,4,11,1.0,318.981,M,-28.308,M,19.0,1015*40
$GPGST,042952.30,0.095,0.046,0.028,295.507,0.032,0.043,0.079*5C
$GPGGA,042952.40,3911.6402001,N,09634.4651971,W,4,11,1.0,318.978,M,-28.308,M,19.0,1015*4F
$GPGST,042952.40,0.095,0.046,0.028,295.507,0.032,0.043,0.079*5B
$GPGGA,042952.50,3911.6402020,N,09634.4651999,W,4,11,1.0,318.972,M,-28.308,M,19.0,1015*41
$GPGST,042952.50,0.095,0.046,0.028,295.507,0.032,0.043,0.079*5A
$GPGGA,042952.60,3911.6402031,N,09634.4651955,W,4,11,1.0,318.963,M,-28.308,M,19.0,1015*42
$GPGST,042952.60,0.095,0.046,0.028,295.507,0.032,0.043,0.079*59
$GPGGA,042952.70,3911.6402052,N,09634.4651943,W,4,11,1.0,318.972,M,-28.308,M,19.0,1015*41
$GPGST,042952.70,0.095,0.046,0.028,295.507,0.032,0.043,0.079*58
$GPGGA,042952.80,3911.6402072,N,09634.4651933,W,4,11,1.0,318.966,M,-28.308,M,19.0,1015*4E
$GPGST,042952.80,0.095,0.046,0.028,295.507,0.032,0.043,0.079*57
$GPGGA,042952.90,3911.6402018,N,09634.4651979,W,4,11,1.0,318.966,M,-28.308,M,19.0,1015*4D
$GPGST,042952.90,0.095,0.046,0.028,295.507,0.032,0.043,0.079*56
$GPGGA,042953.00,3911.6402049,N,09634.4651956,W,4,11,1.0,318.957,M,-28.308,M,20.0,1015*44
$GPGST,042953.00,0.096,0.046,0.028,295.507,0.032,0.043,0.079*5D
$GPGGA,042953.10,3911.6402017,N,09634.4651996,W,4,11,1.0,318.969,M,-28.308,M,20.0,1015*4F
$GPGST,042953.10,0.096,0.046,0.028,295.507,0.032,0.043,0.079*5C
$GPGGA,042953.20,3911.6402034,N,09634.4651952,W,4,11,1.0,318.974,M,-28.308,M,20.0,1015*49
$GPGST,042953.20,0.096,0.046,0.028,295.507,0.032,0.043,0.079*5F
$GPGGA,042953.30,3911.6402003,N,09634.4651965,W,4,11,1.0,318.971,M,-28.308,M,20.0,1015*4D
$GPGST,042953.30,0.096,0.046,0.028,295.507,0.032,0.043,0.079*5E
$GPGGA,042953.40,3911.6402056,N,09634.4651930,W,4,11,1.0,318.979,M,-28.308,M,20.0,1015*42
$GPGST,042953.40,0.096,0.046,0.028,295.507,0.032,0.043,0.079*59
$GPGGA,042953.50,3911.6401994,N,09634.4651996,W,4,11,1.0,318.972,M,-28.308,M,20.0,1015*40
$GPGST,042953.50,0.096,0.046,0.028,295.507,0.032,0.043,0.079*58
$GPGGA,042953.60,3911.6402030,N,09634.4651963,W,4,11,1.0,318.976,M,-28.308,M,20.0,1015*49
$GPGST,042953.60,0.096,0.046,0.028,295.507,0.032,0.043,0.079*5B
$GPGGA,042953.70,3911.6401993,N,09634.4651964,W,4,11,1.0,318.984,M,-28.308,M,20.0,1015*41
$GPGST,042953.70,0.096,0.046,0.028,295.507,0.032,0.043,0.079*5A
$GPGGA,042953.80,3911.6401997,N,09634.4651980,W,4,11,1.0,318.984,M,-28.308,M,20.0,1015*40
$GPGST,042953.80,0.096,0.046,0.028,295.507,0.032,0.043,0.079*55
$GPGGA,042953.90,3911.6402016,N,09634.4651971,W,4,11,1.0,318.982,M,-28.308,M,20.0,1015*4A
$GPGST,042953.90,0.096,0.046,0.028,295.507,0.032,0.043,0.079*54
$GPGGA,042954.00,3911.6402008,N,09634.4651959,W,4,11,1.0,318.980,M,-28.308,M,21.0,1015*42
$GPGST,042954.00,0.096,0.046,0.028,295.507,0.032,0.043,0.079*5A
$GPGGA,042954.10,3911.6401996,N,09634.4651937,W,4,11,1.0,318.983,M,-28.308,M,21.0,1015*45
$GPGST,042954.10,0.096,0.046,0.028,295.507,0.032,0.043,0.079*5B
$GPGGA,042954.20,3911.6401962,N,09634.4651973,W,4,11,1.0,318.980,M,-28.308,M,21.0,1015*4E
$GPGST,042954.20,0.096,0.046,0.028,295.507,0.032,0.043,0.079*58
$GPGGA,042954.30,3911.6402012,N,09634.4651969,W,4,11,1.0,318.988,M,-28.308,M,21.0,1015*41
$GPGST,042954.30,0.096,0.046,0.028,295.507,0.032,0.043,0.079*59
$GPGGA,042954.40,3911.6402043,N,09634.4651982,W,4,11,1.0,318.992,M,-28.308,M,21.0,1015*4C
$GPGST,042954.40,0.096,0.046,0.028,295.507,0.032,0.043,0.079*5E
$GPGGA,042954.50,3911.6402017,N,09634.4651962,W,4,11,1.0,318.979,M,-28.308,M,21.0,1015*47
$GPGST,042954.50,0.096,0.046,0.028,295.507,0.032,0.043,0.079*5F
$GPGGA,042954.60,3911.6401954,N,09634.4651968,W,4,11,1.0,318.982,M,-28.308,M,21.0,1015*47
$GPGST,042954.60,0.096,0.046,0.028,295.507,0.032,0.043,0.079*5C
$GPGGA,042954.70,3911.6401955,N,09634.4651948,W,4,11,1.0,318.970,M,-28.308,M,21.0,1015*48
$GPGST,042954.70,0.096,0.046,0.028,295.507,0.032,0.043,0.079*5D
$GPGGA,042954.80,3911.6401983,N,09634.4652024,W,4,11,1.0,318.974,M,-28.308,M,21.0,1015*48
$GPGST,042954.80,0.096,0.046,0.028,295.507,0.032,0.043,0.079*52
$GPGGA,042954.90,3911.6401962,N,09634.4651988,W,4,11,1.0,318.982,M,-28.308,M,21.0,1015*43
$GPGST,042954.90,0.096,0.046,0.028,295.507,0.032,0.043,0.079*53
$GPGGA,042955.00,3911.6402012,N,09634.4652010,W,4,11,1.0,318.987,M,-28.308,M,22.0,1015*4B
$GPGST,042955.00,0.096,0.046,0.029,295.507,0.033,0.043,0.079*5B
$GPGGA,042955.10,3911.6401974,N,09634.4651980,W,4,11,1.0,318.983,M,-28.308,M,22.0,1015*47
$GPGST,042955.10,0.096,0.046,0.029,295.507,0.033,0.043,0.079*5A
$GPGGA,042955.20,3911.6401989,N,09634.4652004,W,4,11,1.0,318.985,M,-28.308,M,22.0,1015*46
$GPGST,042955.20,0.096,0.046,0.029,295.507,0.033,0.043,0.079*59
$GPGGA,042955.30,3911.6402000,N,09634.4651993,W,4,11,1.0,318.985,M,-28.308,M,22.0,1015*48
$GPGST,042955.30,0.096,0.046,0.029,295.507,0.033,0.043,0.079*58
$GPGGA,042955.40,3911.6401987,N,09634.4651982,W,4,11,1.0,318.999,M,-28.308,M,22.0,1015*47
$GPGST,042955.40,0.096,0.046,0.029,295.507,0.033,0.043,0.079*5F
$GPGGA,042955.50,3911.6401997,N,09634.4651982,W,4,11,1.0,318.994,M,-28.308,M,22.0,1015*4A
$GPGST,042955.50,0.096,0.046,0.029,295.507,0.033,0.043,0.079*5E
$GPGGA,042955.60,3911.6401996,N,09634.4651990,W,4,11,1.0,318.990,M,-28.308,M,22.0,1015*4F
$GPGST,042955.60,0.096,0.046,0.029,295.507,0.033,0.043,0.079*5D
$GPGGA,042955.70,3911.6401994,N,09634.4652030,W,4,11,1.0,318.974,M,-28.308,M,22.0,1015*46
$GPGST,042955.70,0.096,0.046,0.029,295.507,0.033,0.043,0.079*5C
$GPGGA,042955.80,3911.6402037,N,09634.4651976,W,4,11,1.0,318.982,M,-28.308,M,22.0,1015*4B
$GPGST,042955.80,0.096,0.046,0.029,295.507,0.033,0.043,0.079*53
$GPGGA,042955.90,3911.6401949,N,09634.4651957,W,4,11,1.0,318.983,M,-28.308,M,22.0,1015*4B
$GPGST,042955.90,0.096,0.046,0.029,295.507,0.033,0.043,0.079*52
$GPGGA,042956.00,3911.6401981,N,09634.4652007,W,4,11,1.0,318.983,M,-28.308,M,23.0,1015*4B
$GPGST,042956.00,0.097,0.046,0.029,295.507,0.033,0.044,0.080*58
$GPGGA,042956.10,3911.6401993,N,09634.4651995,W,4,11,1.0,318.981,M,-28.308,M,23.0,1015*4A
$GPGST,042956.10,0.097,0.046,0.029,295.507,0.033,0.044,0.080*59
$GPGGA,042956.20,3911.6401972,N,09634.4652098,W,4,11,1.0,318.959,M,-28.308,M,13.0,1015*47
$GPGST,042956.20,0.093,0.044,0.027,294.531,0.031,0.042,0.077*5A
$GPGGA,042956.30,3911.6401933,N,09634.4652075,W,4,11,1.0,318.963,M,-28.308,M,13.0,1015*49
$GPGST,042956.30,0.093,0.044,0.027,294.531,0.031,0.042,0.077*5B
$GPGGA,042956.40,3911.6401973,N,09634.4652127,W,4,11,1.0,318.968,M,-28.308,M,13.0,1015*47
$GPGST,042956.40,0.093,0.044,0.027,294.531,0.031,0.042,0.077*5C
$GPGGA,042956.50,3911.6401955,N,09634.4652160,W,4,11,1.0,318.970,M,-28.308,M,13.0,1015*48
$GPGST,042956.50,0.093,0.044,0.027,294.531,0.031,0.042,0.077*5D
$GPGGA,042956.60,3911.6401933,N,09634.4652118,W,4,11,1.0,318.965,M,-28.308,M,13.0,1015*40
$GPGST,042956.60,0.093,0.044,0.027,294.531,0.031,0.042,0.077*5E
$GPGGA,042956.70,3911.6401975,N,09634.4652044,W,4,11,1.0,318.971,M,-28.308,M,13.0,1015*4E
$GPGST,042956.70,0.093,0.044,0.027,294.531,0.031,0.042,0.077*5F
$GPGGA,042956.80,3911.6401954,N,09634.4652115,W,4,11,1.0,318.969,M,-28.308,M,13.0,1015*4E
$GPGST,042956.80,0.093,0.044,0.027,294.531,0.031,0.042,0.077*50
$GPGGA,042956.90,3911.6401940,N,09634.4652114,W,4,11,1.0,318.970,M,-28.308,M,13.0,1015*43
$GPGST,042956.90,0.093,0.044,0.027,294.531,0.031,0.042,0.077*51
$GPGGA,042957.00,3911.6401965,N,09634.4652084,W,4,11,1.0,318.966,M,-28.308,M,14.0,1015*44
$GPGST,042957.00,0.093,0.045,0.027,294.531,0.031,0.042,0.077*58
$GPGGA,042957.10,3911.6401922,N,09634.4652124,W,4,11,1.0,318.957,M,-28.308,M,14.0,1015*4F
$GPGST,042957.10,0.093,0.045,0.027,294.531,0.031,0.042,0.077*59
$GPGGA,042957.20,3911.6402006,N,09634.4652139,W,4,11,1.0,318.968,M,-28.308,M,14.0,1015*40
$GPGST,042957.20,0.093,0.045,0.027,294.531,0.031,0.042,0.077*5A
$GPGGA,042957.30,3911.6401971,N,09634.4652102,W,4,11,1.0,318.968,M,-28.308,M,14.0,1015*43
$GPGST,042957.30,0.093,0.045,0.027,294.531,0.031,0.042,0.077*5B
$GPGGA,042957.40,3911.6401982,N,09634.4652097,W,4,11,1.0,318.964,M,-28.308,M,14.0,1015*49
$GPGST,042957.40,0.093,0.045,0.027,294.531,0.031,0.042,0.077*5C
$GPGGA,042957.50,3911.6401977,N,09634.4652100,W,4,11,1.0,318.964,M,-28.308,M,14.0,1015*4D
$GPGST,042957.50,0.093,0.045,0.027,294.531,0.031,0.042,0.077*5D
$GPGGA,042957.60,3911.6401977,N,09634.4652139,W,4,11,1.0,318.958,M,-28.308,M,14.0,1015*4B
$GPGST,042957.60,0.093,0.045,0.027,294.531,0.031,0.042,0.077*5E
$GPGGA,042957.70,3911.6401972,N,09634.4652122,W,4,11,1.0,318.965,M,-28.308,M,14.0,1015*4B
$GPGST,042957.70,0.093,0.045,0.027,294.531,0.031,0.042,0.077*5F
$GPGGA,042957.80,3911.6401993,N,09634.4652091,W,4,11,1.0,318.968,M,-28.308,M,14.0,1015*4F
$GPGST,042957.80,0.093,0.045,0.027,294.531,0.031,0.042,0.077*50
$GPGGA,042957.90,3911.6402044,N,09634.4652047,W,4,11,1.0,318.972,M,-28.308,M,14.0,1015*4E
$GPGST,042957.90,0.093,0.045,0.027,294.531,0.031,0.042,0.077*51
$GPGGA,042958.00,3911.6401997,N,09634.4652090,W,4,11,1.0,318.968,M,-28.308,M,15.0,1015*4C
$GPGST,042958.00,0.093,0.045,0.027,294.531,0.031,0.042,0.077*57
$GPGGA,042958.10,3911.6402009,N,09634.4652078,W,4,11,1.0,318.963,M,-28.308,M,15.0,1015*4D
$GPGST,042958.10,0.093,0.045,0.027,294.531,0.031,0.042,0.077*56
$GPGGA,042958.20,3911.6401985,N,09634.4652121,W,4,11,1.0,318.973,M,-28.308,M,15.0,1015*4C
$GPGST,042958.20,0.093,0.045,0.027,294.531,0.031,0.042,0.077*55
$GPGGA,042958.30,3911.6402019,N,09634.4652075,W,4,11,1.0,318.974,M,-28.308,M,15.0,1015*45
$GPGST,042958.30,0.093,0.045,0.027,294.531,0.031,0.042,0.077*54
$GPGGA,042958.40,3911.6401966,N,09634.4652059,W,4,11,1.0,318.972,M,-28.308,M,15.0,1015*48
$GPGST,042958.40,0.093,0.045,0.027,294.531,0.031,0.042,0.077*53
$GPGGA,042958.50,3911.6401985,N,09634.4652051,W,4,11,1.0,318.963,M,-28.308,M,15.0,1015*4C
$GPGST,042958.50,0.093,0.045,0.027,294.531,0.031,0.042,0.077*52
$GPGGA,042958.60,3911.6402012,N,09634.4652084,W,4,11,1.0,318.974,M,-28.308,M,15.0,1015*45
$GPGST,042958.60,0.093,0.045,0.027,294.531,0.031,0.042,0.077*51
$GPGGA,042958.70,3911.6401981,N,09634.4652079,W,4,11,1.0,318.971,M,-28.308,M,15.0,1015*43
$GPGST,042958.70,0.093,0.045,0.027,294.531,0.031,0.042,0.077*50
$GPGGA,042958.80,3911.6402004,N,09634.4652018,W,4,11,1.0,318.968,M,-28.308,M,15.0,1015*44
$GPGST,042958.80,0.093,0.045,0.027,294.531,0.031,0.042,0.077*5F
$GPGGA,042958.90,3911.6402041,N,09634.4652057,W,4,11,1.0,318.971,M,-28.308,M,15.0,1015*47
$GPGST,042958.90,0.093,0.045,0.027,294.531,0.031,0.042,0.077*5E
$GPGGA,042959.00,3911.6402056,N,09634.4652032,W,4,11,1.0,318.980,M,-28.308,M,16.0,1015*47
$GPGST,042959.00,0.094,0.045,0.027,294.531,0.031,0.042,0.077*51
$GPGGA,042959.10,3911.6402032,N,09634.4652026,W,4,11,1.0,318.969,M,-28.308,M,16.0,1015*46
$GPGST,042959.10,0.094,0.045,0.027,294.531,0.031,0.042,0.077*50
$GPGGA,042959.20,3911.6401987,N,09634.4652073,W,4,11,1.0,318.976,M,-28.308,M,16.0,1015*4F
$GPGST,042959.20,0.094,0.045,0.027,294.531,0.031,0.042,0.077*53
$GPGGA,042959.30,3911.6402011,N,09634.4652012,W,4,11,1.0,318.975,M,-28.308,M,16.0,1015*4F
$GPGST,042959.30,0.094,0.045,0.027,294.531,0.031,0.042,0.077*52
$GPGGA,042959.40,3911.6402004,N,09634.4652042,W,4,11,1.0,318.985,M,-28.308,M,16.0,1015*46
$GPGST,042959.40,0.094,0.045,0.027,294.531,0.031,0.042,0.077*55
$GPGGA,042959.50,3911.6402047,N,09634.4651965,W,4,11,1.0,318.986,M,-28.308,M,16.0,1015*4C
$GPGST,042959.50,0.094,0.045,0.027,294.531,0.031,0.042,0.077*54
$GPGGA,042959.60,3911.6401949,N,09634.4652061,W,4,11,1.0,318.981,M,-28.308,M,16.0,1015*42
$GPGST,042959.60,0.094,0.045,0.027,294.531,0.031,0.042,0.077*57
$GPGGA,042959.70,3911.6402015,N,09634.4652000,W,4,11,1.0,318.985,M,-28.308,M,16.0,1015*43
$GPGST,042959.70,0.094,0.045,0.027,294.531,0.031,0.042,0.077*56
$GPGGA,042959.80,3911.6402030,N,09634.4652095,W,4,11,1.0,318.985,M,-28.308,M,16.0,1015*47
$GPGST,042959.80,0.094,0.045,0.027,294.531,0.031,0.042,0.077*59
$GPGGA,042959.90,3911.6402007,N,09634.4652054,W,4,11,1.0,318.978,M,-28.308,M,16.0,1015*4D
$GPGST,042959.90,0.094,0.045,0.027,294.531,0.031,0.042,0.077*58
$GPGGA,043000.00,3911.6402001,N,09634.4652071,W,4,11,1.0,318.983,M,-28.308,M,17.0,1015*44
$GPGST,043000.00,0.094,0.045,0.027,294.531,0.031,0.043,0.078*5B
$GPGGA,043000.10,3911.6402039,N,09634.4652040,W,4,11,1.0,318.986,M,-28.308,M,17.0,1015*49
$GPGST,043000.10,0.094,0.045,0.027,294.531,0.031,0.043,0.078*5A
$GPGGA,043000.20,3911.6402042,N,09634.4652033,W,4,11,1.0,318.970,M,-28.308,M,17.0,1015*4B
$GPGST,043000.20,0.094,0.045,0.027,294.531,0.031,0.043,0.078*59
$GPGGA,043000.30,3911.6402022,N,09634.4651983,W,4,11,1.0,318.984,M,-28.308,M,17.0,1015*46
$GPGST,043000.30,0.094,0.045,0.027,294.531,0.031,0.043,0.078*58
$GPGGA,043000.40,3911.6402045,N,09634.4652011,W,4,11,1.0,318.983,M,-28.308,M,17.0,1015*46
$GPGST,043000.40,0.094,0.045,0.027,294.531,0.031,0.043,0.078*5F
$GPGGA,043000.50,3911.6402006,N,09634.4652009,W,4,11,1.0,318.985,M,-28.308,M,17.0,1015*4F
$GPGST,043000.50,0.094,0.045,0.027,294.531,0.031,0.043,0.078*5E
$GPGGA,043000.60,3911.6402051,N,09634.4652026,W,4,11,1.0,318.993,M,-28.308,M,17.0,1015*44
$GPGST,043000.60,0.094,0.045,0.027,294.531,0.031,0.043,0.078*5D
$GPGGA,043000.70,3911.6402038,N,09634.4652004,W,4,11,1.0,318.996,M,-28.308,M,17.0,1015*4F
$GPGST,043000.70,0.094,0.045,0.027,294.531,0.031,0.043,0.078*5C
$GPGGA,043000.80,3911.6401994,N,09634.4652029,W,4,11,1.0,318.990,M,-28.308,M,17.0,1015*45
$GPGST,043000.80,0.094,0.045,0.027,294.531,0.031,0.043,0.078*53
$GPGGA,043000.90,3911.6402020,N,09634.4652018,W,4,11,1.0,318.995,M,-28.308,M,17.0,1015*46
$GPGST,043000.90,0.094,0.045,0.027,294.531,0.031,0.043,0.078*52
$GPGGA,043001.00,3911.6402013,N,09634.4652019,W,4,11,1.0,318.999,M,-28.308,M,18.0,1015*4C
$GPGST,043001.00,0.094,0.045,0.028,294.531,0.031,0.043,0.078*55
$GPGGA,043001.10,3911.6402056,N,09634.4652016,W,4,11,1.0,318.998,M,-28.308,M,18.0,1015*42
$GPGST,043001.10,0.094,0.045,0.028,294.531,0.031,0.043,0.078*54
$GPGGA,043001.20,3911.6401982,N,09634.4652035,W,4,11,1.0,318.998,M,-28.308,M,18.0,1015*43
$GPGST,043001.20,0.094,0.045,0.028,294.531,0.031,0.043,0.078*57
$GPGGA,043001.30,3911.6401988,N,09634.4652039,W,4,11,1.0,318.988,M,-28.308,M,18.0,1015*45
$GPGST,043001.30,0.094,0.045,0.028,294.531,0.031,0.043,0.078*56
$GPGGA,043001.40,3911.6402022,N,09634.4652054,W,4,11,1.0,318.997,M,-28.308,M,18.0,1015*4D
$GPGST,043001.40,0.094,0.045,0.028,294.531,0.031,0.043,0.078*51
$GPGGA,043001.50,3911.6402015,N,09634.4651991,W,4,11,1.0,319.000,M,-28.308,M,18.0,1015*4D
$GPGST,043001.50,0.094,0.045,0.028,294.531,0.031,0.043,0.078*50
$GPGGA,043001.60,3911.6402037,N,09634.4652073,W,4,11,1.0,318.996,M,-28.308,M,18.0,1015*4F
$GPGST,043001.60,0.094,0.045,0.028,294.531,0.031,0.043,0.078*53
$GPGGA,043001.70,3911.6402022,N,09634.4652014,W,4,11,1.0,319.001,M,-28.308,M,18.0,1015*4D
$GPGST,043001.70,0.094,0.045,0.028,294.531,0.031,0.043,0.078*52
$GPGGA,043001.80,3911.6402041,N,09634.4652052,W,4,11,1.0,319.006,M,-28.308,M,18.0,1015*42
$GPGST,043001.80,0.094,0.045,0.028,294.531,0.031,0.043,0.078*5D
$GPGGA,043001.90,3911.6402038,N,09634.4652109,W,4,11,1.0,318.990,M,-28.308,M,18.0,1015*45
$GPGST,043001.90,0.094,0.045,0.028,294.531,0.031,0.043,0.078*5C
$GPGGA,043002.00,3911.6402046,N,09634.4652030,W,4,11,1.0,318.998,M,-28.308,M,19.0,1015*44
$GPGST,043002.00,0.095,0.045,0.028,294.531,0.031,0.043,0.078*57
$GPGGA,043002.10,3911.6402024,N,09634.4652028,W,4,11,1.0,318.988,M,-28.308,M,19.0,1015*49
$GPGST,043002.10,0.095,0.045,0.028,294.531,0.031,0.043,0.078*56
$GPGGA,043002.20,3911.6402034,N,09634.4652085,W,4,11,1.0,318.994,M,-28.308,M,19.0,1015*41
$GPGST,043002.20,0.095,0.045,0.028,294.531,0.031,0.043,0.078*55
$GPGGA,043002.30,3911.6402001,N,09634.4652087,W,4,11,1.0,319.001,M,-28.308,M,19.0,1015*40
$GPGST,043002.30,0.095,0.045,0.028,294.531,0.031,0.043,0.078*54
$GPGGA,043002.40,3911.6402083,N,09634.4652145,W,4,11,1.0,318.977,M,-28.308,M,9.0,1015*7A
$GPGST,043002.40,0.091,0.043,0.026,293.817,0.030,0.041,0.075*5F
$GPGGA,043002.50,3911.6402139,N,09634.4652120,W,4,11,1.0,318.990,M,-28.308,M,9.0,1015*71
$GPGST,043002.50,0.091,0.043,0.026,293.817,0.030,0.041,0.075*5E
$GPGGA,043002.60,3911.6402105,N,09634.4652135,W,4,11,1.0,318.990,M,-28.308,M,9.0,1015*79
$GPGST,043002.60,0.091,0.043,0.026,293.817,0.030,0.041,0.075*5D
$GPGGA,043002.70,3911.6402084,N,09634.4652096,W,4,11,1.0,318.981,M,-28.308,M,9.0,1015*78
$GPGST,043002.70,0.091,0.043,0.026,293.817,0.030,0.041,0.075*5C
$GPGGA,043002.80,3911.6402082,N,09634.4652064,W,4,11,1.0,318.984,M,-28.308,M,9.0,1015*79
$GPGST,043002.80,0.091,0.043,0.026,293.817,0.030,0.041,0.075*53
$GPGGA,043002.90,3911.6402131,N,09634.4652074,W,4,11,1.0,319.000,M,-28.308,M,9.0,1015*74
$GPGST,043002.90,0.091,0.043,0.026,293.817,0.030,0.041,0.075*52
$GPGGA,043003.00,3911.6402068,N,09634.4652107,W,4,11,1.0,318.977,M,-28.308,M,10.0,1015*44
$GPGST,043003.00,0.091,0.044,0.026,293.817,0.030,0.041,0.075*5D
$GPGGA,043003.10,3911.6402067,N,09634.4652125,W,4,11,1.0,318.978,M,-28.308,M,10.0,1015*45
$GPGST,043003.10,0.091,0.044,0.026,293.817,0.030,0.041,0.075*5C
$GPGGA,043003.20,3911.6402033,N,09634.4652121,W,4,11,1.0,318.980,M,-28.308,M,10.0,1015*44
$GPGST,043003.20,0.091,0.044,0.026,293.817,0.030,0.041,0.075*5F
$GPGGA,043003.30,3911.6402084,N,09634.4652063,W,4,11,1.0,318.992,M,-28.308,M,10.0,1015*4D
$GPGST,043003.30,0.091,0.044,0.026,293.817,0.030,0.041,0.075*5E
$GPGGA,043003.40,3911.6402048,N,09634.4652100,W,4,11,1.0,318.964,M,-28.308,M,10.0,1015*47
$GPGST,043003.40,0.091,0.044,0.026,293.817,0.030,0.041,0.075*59
$GPGGA,043003.50,3911.6402048,N,09634.4652053,W,4,11,1.0,318.973,M,-28.308,M,10.0,1015*47
$GPGST,043003.50,0.091,0.044,0.026,293.817,0.030,0.041,0.075*58
$GPGGA,043003.60,3911.6402069,N,09634.4652030,W,4,11,1.0,318.968,M,-28.308,M,10.0,1015*48
$GPGST,043003.60,0.091,0.044,0.026,293.817,0.030,0.041,0.075*5B
$GPGGA,043003.70,3911.6402103,N,09634.4652070,W,4,11,1.0,318.971,M,-28.308,M,10.0,1015*48
$GPGST,043003.70,0.091,0.044,0.026,293.817,0.030,0.041,0.075*5A
$GPGGA,043003.80,3911.6402062,N,09634.4652080,W,4,11,1.0,318.975,M,-28.308,M,10.0,1015*4A
$GPGST,043003.80,0.091,0.044,0.026,293.817,0.030,0.041,0.075*55
$GPGGA,043003.90,3911.6402104,N,09634.4652060,W,4,11,1.0,318.969,M,-28.308,M,10.0,1015*49
$GPGST,043003.90,0.091,0.044,0.026,293.817,0.030,0.041,0.075*54
$GPGGA,043004.00,3911.6402126,N,09634.4652028,W,4,11,1.0,318.975,M,-28.308,M,11.0,1015*47
$GPGST,043004.00,0.091,0.044,0.026,293.817,0.030,0.041,0.076*59
$GPGGA,043004.10,3911.6402073,N,09634.4652007,W,4,11,1.0,318.961,M,-28.308,M,11.0,1015*4F
$GPGST,043004.10,0.091,0.044,0.026,293.817,0.030,0.041,0.076*58
$GPGGA,043004.20,3911.6402095,N,09634.4652005,W,4,11,1.0,318.971,M,-28.308,M,11.0,1015*47
$GPGST,043004.20,0.091,0.044,0.026,293.817,0.030,0.041,0.076*5B
$GPGGA,043004.30,3911.6402060,N,09634.4652025,W,4,11,1.0,318.965,M,-28.308,M,11.0,1015*4B
$GPGST,043004.30,0.091,0.044,0.026,293.817,0.030,0.041,0.076*5A
$GPGGA,043004.40,3911.6402040,N,09634.4652031,W,4,11,1.0,318.961,M,-28.308,M,11.0,1015*4F
$GPGST,043004.40,0.091,0.044,0.026,293.817,0.030,0.041,0.076*5D
$GPGGA,043004.50,3911.6402001,N,09634.4652071,W,4,11,1.0,318.958,M,-28.308,M,11.0,1015*45
$GPGST,043004.50,0.091,0.044,0.026,293.817,0.030,0.041,0.076*5C
$GPGGA,043004.60,3911.6402054,N,09634.4652040,W,4,11,1.0,318.978,M,-28.308,M,11.0,1015*46
$GPGST,043004.60,0.091,0.044,0.026,293.817,0.030,0.041,0.076*5F
$GPGGA,043004.70,3911.6402088,N,09634.4652068,W,4,11,1.0,318.980,M,-28.308,M,11.0,1015*4B
$GPGST,043004.70,0.091,0.044,0.026,293.817,0.030,0.041,0.076*5E
$GPGGA,043004.80,3911.6402115,N,09634.4652037,W,4,11,1.0,318.980,M,-28.308,M,11.0,1015*4B
$GPGST,043004.80,0.091,0.044,0.026,293.817,0.030,0.041,0.076*51
$GPGGA,043004.90,3911.6402117,N,09634.4652025,W,4,11,1.0,318.991,M,-28.308,M,11.0,1015*4B
$GPGST,043004.90,0.091,0.044,0.026,293.817,0.030,0.041,0.076*50
$GPGGA,043005.00,3911.6402077,N,09634.4652010,W,4,11,1.0,318.976,M,-28.308,M,12.0,1015*48
$GPGST,043005.00,0.092,0.044,0.027,293.817,0.030,0.042,0.076*59
$GPGGA,043005.10,3911.6402122,N,09634.4652021,W,4,11,1.0,318.973,M,-28.308,M,12.0,1015*4F
$GPGST,043005.10,0.092,0.044,0.027,293.817,0.030,0.042,0.076*58
$GPGGA,043005.20,3911.6402154,N,09634.4652021,W,4,11,1.0,318.981,M,-28.308,M,12.0,1015*40
$GPGST,043005.20,0.092,0.044,0.027,293.817,0.030,0.042,0.076*5B
$GPGGA,043005.30,3911.6402093,N,09634.4652039,W,4,11,1.0,318.987,M,-28.308,M,12.0,1015*44
$GPGST,043005.30,0.092,0.044,0.027,293.817,0.030,0.042,0.076*5A
$GPGGA,043005.40,3911.6402063,N,09634.4652030,W,4,11,1.0,318.968,M,-28.308,M,12.0,1015*44
$GPGST,043005.40,0.092,0.044,0.027,293.817,0.030,0.042,0.076*5D
$GPGGA,043005.50,3911.6402079,N,09634.4652034,W,4,11,1.0,318.991,M,-28.308,M,12.0,1015*4C
$GPGST,043005.50,0.092,0.044,0.027,293.817,0.030,0.042,0.076*5C
$GPGGA,043005.60,3911.6402085,N,09634.4652028,W,4,11,1.0,319.001,M,-28.308,M,12.0,1015*40
$GPGST,043005.60,0.092,0.044,0.027,293.817,0.030,0.042,0.076*5F
$GPGGA,043005.70,3911.6402106,N,09634.4652026,W,4,11,1.0,318.991,M,-28.308,M,12.0,1015*44
$GPGST,043005.70,0.092,0.044,0.027,293.817,0.030,0.042,0.076*5E
$GPGGA,043005.80,3911.6402059,N,09634.4652011,W,4,11,1.0,318.981,M,-28.308,M,12.0,1015*45
$GPGST,043005.80,0.092,0.044,0.027,293.817,0.030,0.042,0.076*51
$GPGGA,043005.90,3911.6402026,N,09634.4652040,W,4,11,1.0,318.983,M,-28.308,M,12.0,1015*4A
$GPGST,043005.90,0.092,0.044,0.027,293.817,0.030,0.042,0.076*50
$GPGGA,043006.00,3911.6402052,N,09634.4652029,W,4,11,1.0,318.984,M,-28.308,M,13.0,1015*4A
$GPGST,043006.00,0.092,0.044,0.027,293.817,0.030,0.042,0.076*5A
$GPGGA,043006.10,3911.6402083,N,09634.4652022,W,4,11,1.0,318.998,M,-28.308,M,13.0,1015*41
$GPGST,043006.10,0.092,0.044,0.027,293.817,0.030,0.042,0.076*5B
$GPGGA,043006.20,3911.6402079,N,09634.4651991,W,4,11,1.0,318.992,M,-28.308,M,13.0,1015*4F
$GPGST,043006.20,0.092,0.044,0.027,293.817,0.030,0.042,0.076*58
$GPGGA,043006.30,3911.6402035,N,09634.4652030,W,4,11,1.0,318.981,M,-28.308,M,13.0,1015*45
$GPGST,043006.30,0.092,0.044,0.027,293.817,0.030,0.042,0.076*59
$GPGGA,043006.40,3911.6402025,N,09634.4652069,W,4,11,1.0,318.976,M,-28.308,M,13.0,1015*47
$GPGST,043006.40,0.092,0.044,0.027,293.817,0.030,0.042,0.076*5E
$GPGGA,043006.50,3911.6402021,N,09634.4652027,W,4,11,1.0,318.979,M,-28.308,M,13.0,1015*47
$GPGST,043006.50,0.092,0.044,0.027,293.817,0.030,0.042,0.076*5F
$GPGGA,043006.60,3911.6402027,N,09634.4652051,W,4,11,1.0,318.981,M,-28.308,M,13.0,1015*44
$GPGST,043006.60,0.092,0.044,0.027,293.817,0.030,0.042,0.076*5C
$GPGGA,043006.70,3911.6402035,N,09634.4652088,W,4,11,1.0,318.985,M,-28.308,M,13.0,1015*46
$GPGST,043006.70,0.092,0.044,0.027,293.817,0.030,0.042,0.076*5D
$GPGGA,043006.80,3911.6402028,N,09634.4652084,W,4,11,1.0,318.983,M,-28.308,M,13.0,1015*4F
$GPGST,043006.80,0.092,0.044,0.027,293.817,0.030,0.042,0.076*52
$GPGGA,043006.90,3911.6402049,N,09634.4652027,W,4,11,1.0,318.985,M,-28.308,M,13.0,1015*46
$GPGST,043006.90,0.092,0.044,0.027,293.817,0.030,0.042,0.076*53
$GPGGA,043007.00,3911.6402094,N,09634.4652043,W,4,11,1.0,318.993,M,-28.308,M,14.0,1015*4C
$GPGST,043007.00,0.092,0.044,0.027,293.817,0.030,0.042,0.077*5A
$GPGGA,043007.10,3911.6402094,N,09634.4652024,W,4,11,1.0,318.997,M,-28.308,M,14.0,1015*48
$GPGST,043007.10,0.092,0.044,0.027,293.817,0.030,0.042,0.077*5B
$GPGGA,043007.20,3911.6402067,N,09634.4652088,W,4,11,1.0,319.000,M,-28.308,M,14.0,1015*47
$GPGST,043007.20,0.092,0.044,0.027,293.817,0.030,0.042,0.077*58
$GPGGA,043007.30,3911.6402033,N,09634.4652073,W,4,11,1.0,318.972,M,-28.308,M,14.0,1015*4E
$GPGST,043007.30,0.092,0.044,0.027,293.817,0.030,0.042,0.077*59
$GPGGA,043007.40,3911.6402115,N,09634.4652067,W,4,11,1.0,319.001,M,-28.308,M,14.0,1015*45
$GPGST,043007.40,0.092,0.044,0.027,293.817,0.030,0.042,0.077*5E
$GPGGA,043007.50,3911.6402060,N,09634.4652069,W,4,11,1.0,318.995,M,-28.308,M,14.0,1015*4C
$GPGST,043007.50,0.092,0.044,0.027,293.817,0.030,0.042,0.077*5F
$GPGGA,043007.60,3911.6402046,N,09634.4652013,W,4,11,1.0,318.996,M,-28.308,M,14.0,1015*45
$GPGST,043007.60,0.092,0.044,0.027,293.817,0.030,0.042,0.077*5C
$GPGGA,043007.70,3911.6402098,N,09634.4652060,W,4,11,1.0,319.001,M,-28.308,M,14.0,1015*45
$GPGST,043007.70,0.092,0.044,0.027,293.817,0.030,0.042,0.077*5D
$GPGGA,043007.80,3911.6402104,N,09634.4652051,W,4,11,1.0,318.996,M,-28.308,M,14.0,1015*4A
$GPGST,043007.80,0.092,0.044,0.027,293.817,0.030,0.042,0.077*52
$GPGGA,043007.90,3911.6402040,N,09634.4652102,W,4,11,1.0,318.984,M,-28.308,M,14.0,1015*4E
$GPGST,043007.90,0.092,0.044,0.027,293.817,0.030,0.042,0.077*53
$GPGGA,043008.00,3911.6402057,N,09634.4652057,W,4,11,1.0,318.989,M,-28.308,M,15.0,1015*43
$GPGST,043008.00,0.093,0.044,0.027,293.817,0.030,0.042,0.077*54
$GPGGA,043008.10,3911.6402020,N,09634.4652036,W,4,11,1.0,318.976,M,-28.308,M,15.0,1015*45
$GPGST,043008.10,0.093,0.044,0.027,293.817,0.030,0.042,0.077*55
$GPGGA,043008.20,3911.6402137,N,09634.4652015,W,4,11,1.0,318.996,M,-28.308,M,15.0,1015*4E
$GPGST,043008.20,0.093,0.044,0.027,293.817,0.030,0.042,0.077*56
$GPGGA,043008.30,3911.6402071,N,09634.4652045,W,4,11,1.0,318.992,M,-28.308,M,15.0,1015*4D
$GPGST,043008.30,0.093,0.044,0.027,293.817,0.030,0.042,0.077*57
$GPGGA,043008.40,3911.6402049,N,09634.4652065,W,4,11,1.0,318.986,M,-28.308,M,15.0,1015*46
$GPGST,043008.40,0.093,0.044,0.027,293.817,0.030,0.042,0.077*50
$GPGGA,043008.50,3911.6402020,N,09634.4652059,W,4,11,1.0,318.990,M,-28.308,M,15.0,1015*40
$GPGST,043008.50,0.093,0.044,0.027,293.817,0.030,0.042,0.077*51
$GPGGA,043008.60,3911.6402135,N,09634.4652042,W,4,11,1.0,318.994,M,-28.308,M,15.0,1015*48
$GPGST,043008.60,0.093,0.044,0.027,293.817,0.030,0.042,0.077*52
$GPGGA,043008.70,3911.6402042,N,09634.4652072,W,4,11,1.0,318.984,M,-28.308,M,15.0,1015*4A
$GPGST,043008.70,0.093,0.044,0.027,293.817,0.030,0.042,0.077*53
$GPGGA,043008.80,3911.6402060,N,09634.4652053,W,4,11,1.0,318.980,M,-28.308,M,15.0,1015*42
$GPGST,043008.80,0.093,0.044,0.027,293.817,0.030,0.042,0.077*5C
$GPGGA,043008.90,3911.6402100,N,09634.4652043,W,4,11,1.0,318.996,M,-28.308,M,15.0,1015*42
$GPGST,043008.90,0.093,0.044,0.027,293.817,0.030,0.042,0.077*5D
$GPGGA,043009.00,3911.6402094,N,09634.4652015,W,4,11,1.0,318.994,M,-28.308,M,16.0,1015*44
$GPGST,043009.00,0.093,0.045,0.027,293.817,0.031,0.042,0.077*55
$GPGGA,043009.10,3911.6402041,N,09634.4652023,W,4,11,1.0,318.985,M,-28.308,M,16.0,1015*48
$GPGST,043009.10,0.093,0.045,0.027,293.817,0.031,0.042,0.077*54
$GPGGA,043009.20,3911.6402036,N,09634.4652016,W,4,11,1.0,318.984,M,-28.308,M,16.0,1015*4C
$GPGST,043009.20,0.093,0.045,0.027,293.817,0.031,0.042,0.077*57
$GPGGA,043009.30,3911.6402089,N,09634.4652041,W,4,11,1.0,318.977,M,-28.308,M,16.0,1015*47
$GPGST,043009.30,0.093,0.045,0.027,293.817,0.031,0.042,0.077*56
$GPGGA,043009.40,3911.6402090,N,09634.4652048,W,4,11,1.0,318.985,M,-28.308,M,16.0,1015*4C
$GPGST,043009.40,0.093,0.045,0.027,293.817,0.031,0.042,0.077*51
$GPGGA,043009.50,3911.6402048,N,09634.4652066,W,4,11,1.0,318.978,M,-28.308,M,16.0,1015*46
$GPGST,043009.50,0.093,0.045,0.027,293.817,0.031,0.042,0.077*50
$GPGGA,043009.60,3911.6402058,N,09634.4652068,W,4,11,1.0,318.982,M,-28.308,M,16.0,1015*4F
$GPGST,043009.60,0.093,0.045,0.027,293.817,0.031,0.042,0.077*53
$GPGGA,043009.70,3911.6402108,N,09634.4652064,W,4,11,1.0,318.987,M,-28.308,M,16.0,1015*43
$GPGST,043009.70,0.093,0.045,0.027,293.817,0.031,0.042,0.077*52
$GPGGA,043009.80,3911.6402091,N,09634.4652055,W,4,11,1.0,318.987,M,-28.308,M,16.0,1015*4F
$GPGST,043009.80,0.093,0.045,0.027,293.817,0.031,0.042,0.077*5D
$GPGGA,043009.90,3911.6402102,N,09634.4652047,W,4,11,1.0,318.982,M,-28.308,M,16.0,1015*43
$GPGST,043009.90,0.093,0.045,0.027,293.817,0.031,0.042,0.077*5C
$GPGGA,043010.00,3911.6402119,N,09634.4652070,W,4,11,1.0,318.991,M,-28.308,M,17.0,1015*4F
$GPGST,043010.00,0.093,0.045,0.027,293.817,0.031,0.042,0.077*5D
$GPGGA,043010.10,3911.6402031,N,09634.4652060,W,4,11,1.0,318.985,M,-28.308,M,17.0,1015*41
$GPGST,043010.10,0.093,0.045,0.027,293.817,0.031,0.042,0.077*5C
$GPGGA,043010.20,3911.6402043,N,09634.4652048,W,4,11,1.0,318.981,M,-28.308,M,17.0,1015*49
$GPGST,043010.20,0.093,0.045,0.027,293.817,0.031,0.042,0.077*5F
$GPGGA,043010.30,3911.6402056,N,09634.4652059,W,4,11,1.0,318.988,M,-28.308,M,17.0,1015*45
$GPGST,043010.30,0.093,0.045,0.027,293.817,0.031,0.042,0.077*5E
$GPGGA,043010.40,3911.6402079,N,09634.4652064,W,4,11,1.0,318.989,M,-28.308,M,17.0,1015*40
$GPGST,043010.40,0.093,0.045,0.027,293.817,0.031,0.042,0.077*59
$GPGGA,043010.50,3911.6402069,N,09634.4652062,W,4,11,1.0,318.981,M,-28.308,M,17.0,1015*4E
$GPGST,043010.50,0.093,0.045,0.027,293.817,0.031,0.042,0.077*58
$GPGGA,043010.60,3911.6402073,N,09634.4652070,W,4,11,1.0,318.990,M,-28.308,M,17.0,1015*45
$GPGST,043010.60,0.093,0.045,0.027,293.817,0.031,0.042,0.077*5B
$GPGGA,043010.70,3911.6402085,N,09634.4652078,W,4,11,1.0,318.991,M,-28.308,M,17.0,1015*44
$GPGST,043010.70,0.093,0.045,0.027,293.817,0.031,0.042,0.077*5A
$GPGGA,043010.80,3911.6402096,N,09634.4652058,W,4,11,1.0,318.990,M,-28.308,M,17.0,1015*4A
$GPGST,043010.80,0.093,0.045,0.027,293.817,0.031,0.042,0.077*55
$GPGGA,043010.90,3911.6402049,N,09634.4652048,W,4,11,1.0,318.985,M,-28.308,M,17.0,1015*4C
$GPGST,043010.90,0.093,0.045,0.027,293.817,0.031,0.042,0.077*54
$GPGGA,043011.00,3911.6402082,N,09634.4652041,W,4,11,1.0,319.000,M,-28.308,M,18.0,1015*40
$GPGST,043011.00,0.094,0.045,0.027,293.817,0.031,0.043,0.078*55
$GPGGA,043011.10,3911.6402070,N,09634.4652078,W,4,11,1.0,318.992,M,-28.308,M,18.0,1015*45
$GPGST,043011.10,0.094,0.045,0.027,293.817,0.031,0.043,0.078*54
$GPGGA,043011.20,3911.6402106,N,09634.4652077,W,4,11,1.0,318.992,M,-28.308,M,18.0,1015*49
$GPGST,043011.20,0.094,0.045,0.027,293.817,0.031,0.043,0.078*57
$GPGGA,043011.30,3911.6402073,N,09634.4652071,W,4,11,1.0,318.992,M,-28.308,M,18.0,1015*4D
$GPGST,043011.30,0.094,0.045,0.027,293.817,0.031,0.043,0.078*56
$GPGGA,043011.40,3911.6402042,N,09634.4652090,W,4,11,1.0,318.987,M,-28.308,M,18.0,1015*43
$GPGST,043011.40,0.094,0.045,0.027,293.817,0.031,0.043,0.078*51
$GPGGA,043011.50,3911.6401992,N,09634.4652050,W,4,11,1.0,318.975,M,-28.308,M,18.0,1015*44
$GPGST,043011.50,0.094,0.045,0.027,293.817,0.031,0.043,0.078*50
$GPGGA,043011.60,3911.6402014,N,09634.4652044,W,4,11,1.0,318.966,M,-28.308,M,18.0,1015*44
$GPGST,043011.60,0.094,0.045,0.027,293.817,0.031,0.043,0.078*53
$GPGGA,043011.70,3911.6402079,N,09634.4652038,W,4,11,1.0,318.979,M,-28.308,M,18.0,1015*4B
$GPGST,043011.70,0.094,0.045,0.027,293.817,0.031,0.043,0.078*52
$GPGGA,043011.80,3911.6402045,N,09634.4652050,W,4,11,1.0,318.974,M,-28.308,M,18.0,1015*48
$GPGST,043011.80,0.094,0.045,0.027,293.817,0.031,0.043,0.078*5D
$GPGGA,043011.90,3911.6402055,N,09634.4652084,W,4,11,1.0,318.971,M,-28.308,M,18.0,1015*44
$GPGST,043011.90,0.094,0.045,0.027,293.817,0.031,0.043,0.078*5C
$GPGGA,043012.00,3911.6402063,N,09634.4652052,W,4,11,1.0,318.983,M,-28.308,M,19.0,1015*4C
$GPGST,043012.00,0.094,0.045,0.027,293.817,0.031,0.043,0.078*56
$GPGGA,043012.10,3911.6402019,N,09634.4652056,W,4,11,1.0,318.974,M,-28.308,M,19.0,1015*4C
$GPGST,043012.10,0.094,0.045,0.027,293.817,0.031,0.043,0.078*57
$GPGGA,043012.20,3911.6402079,N,09634.4652080,W,4,11,1.0,318.979,M,-28.308,M,19.0,1015*4F
$GPGST,043012.20,0.094,0.045,0.027,293.817,0.031,0.043,0.078*54
$GPGGA,043012.30,3911.6402036,N,09634.4652059,W,4,11,1.0,318.980,M,-28.308,M,19.0,1015*47
$GPGST,043012.30,0.094,0.045,0.027,293.817,0.031,0.043,0.078*55
$GPGGA,043012.40,3911.6402053,N,09634.4652053,W,4,11,1.0,318.987,M,-28.308,M,19.0,1015*4E
$GPGST,043012.40,0.094,0.045,0.027,293.817,0.031,0.043,0.078*52
$GPGGA,043012.50,3911.6402075,N,09634.4652080,W,4,11,1.0,318.983,M,-28.308,M,19.0,1015*41
$GPGST,043012.50,0.094,0.045,0.027,293.817,0.031,0.043,0.078*53
$GPGGA,043012.60,3911.6402023,N,09634.4652061,W,4,11,1.0,318.958,M,-28.308,M,19.0,1015*48
$GPGST,043012.60,0.094,0.045,0.027,293.817,0.031,0.043,0.078*50
$GPGGA,043012.70,3911.6402044,N,09634.4652071,W,4,11,1.0,318.984,M,-28.308,M,19.0,1015*48
$GPGST,043012.70,0.094,0.045,0.027,293.817,0.031,0.043,0.078*51
$GPGGA,043012.80,3911.6402060,N,09634.4652045,W,4,11,1.0,318.944,M,-28.308,M,9.0,1015*7B
$GPGST,043012.80,0.090,0.043,0.026,293.267,0.029,0.041,0.075*56
$GPGGA,043012.90,3911.6402080,N,09634.4652125,W,4,11,1.0,318.938,M,-28.308,M,9.0,1015*78
$GPGST,043012.90,0.090,0.043,0.026,293.267,0.029,0.041,0.075*57
$GPGGA,043013.00,3911.6402099,N,09634.4652098,W,4,11,1.0,318.942,M,-28.308,M,10.0,1015*4A
$GPGST,043013.00,0.091,0.043,0.026,293.267,0.029,0.041,0.075*5E
$GPGGA,043013.10,3911.6402052,N,09634.4652090,W,4,11,1.0,318.922,M,-28.308,M,10.0,1015*42
$GPGST,043013.10,0.091,0.043,0.026,293.267,0.029,0.041,0.075*5F
$GPGGA,043013.20,3911.6402113,N,09634.4652066,W,4,11,1.0,318.943,M,-28.308,M,10.0,1015*4B
$GPGST,043013.20,0.091,0.043,0.026,293.267,0.029,0.041,0.075*5C
$GPGGA,043013.30,3911.6402092,N,09634.4652104,W,4,11,1.0,318.944,M,-28.308,M,10.0,1015*40
$GPGST,043013.30,0.091,0.043,0.026,293.267,0.029,0.041,0.075*5D
$GPGGA,043013.40,3911.6402074,N,09634.4652123,W,4,11,1.0,318.933,M,-28.308,M,10.0,1015*4A
$GPGST,043013.40,0.091,0.043,0.026,293.267,0.029,0.041,0.075*5A
$GPGGA,043013.50,3911.6402060,N,09634.4652109,W,4,11,1.0,318.925,M,-28.308,M,10.0,1015*41
$GPGST,043013.50,0.091,0.043,0.026,293.267,0.029,0.041,0.075*5B
$GPGGA,043013.60,3911.6402108,N,09634.4652089,W,4,11,1.0,318.926,M,-28.308,M,10.0,1015*47
$GPGST,043013.60,0.091,0.043,0.026,293.267,0.029,0.041,0.075*58
$GPGGA,043013.70,3911.6402104,N,09634.4652092,W,4,11,1.0,318.925,M,-28.308,M,10.0,1015*43
$GPGST,043013.70,0.091,0.043,0.026,293.267,0.029,0.041,0.075*59
$GPGGA,043013.80,3911.6402088,N,09634.4652120,W,4,11,1.0,318.932,M,-28.308,M,10.0,1015*47
$GPGST,043013.80,0.091,0.043,0.026,293.267,0.029,0.041,0.075*56
$GPGGA,043013.90,3911.6402056,N,09634.4652103,W,4,11,1.0,318.921,M,-28.308,M,10.0,1015*46
$GPGST,043013.90,0.091,0.043,0.026,293.267,0.029,0.041,0.075*57
$GPGGA,043014.00,3911.6402095,N,09634.4652136,W,4,11,1.0,318.932,M,-28.308,M,11.0,1015*42
$GPGST,043014.00,0.091,0.044,0.026,293.267,0.029,0.041,0.076*5D
$GPGGA,043014.10,3911.6402102,N,09634.4652129,W,4,11,1.0,318.934,M,-28.308,M,11.0,1015*44
$GPGST,043014.10,0.091,0.044,0.026,293.267,0.029,0.041,0.076*5C
$GPGGA,043014.20,3911.6402104,N,09634.4652141,W,4,11,1.0,318.933,M,-28.308,M,11.0,1015*48
$GPGST,043014.20,0.091,0.044,0.026,293.267,0.029,0.041,0.076*5F
$GPGGA,043014.30,3911.6402102,N,09634.4652138,W,4,11,1.0,318.927,M,-28.308,M,11.0,1015*44
$GPGST,043014.30,0.091,0.044,0.026,293.267,0.029,0.041,0.076*5E
$GPGGA,043014.40,3911.6402151,N,09634.4652133,W,4,11,1.0,318.934,M,-28.308,M,11.0,1015*4C
$GPGST,043014.40,0.091,0.044,0.026,293.267,0.029,0.041,0.076*59
$GPGGA,043014.50,3911.6402077,N,09634.4652121,W,4,11,1.0,318.925,M,-28.308,M,11.0,1015*4B
$GPGST,043014.50,0.091,0.044,0.026,293.267,0.029,0.041,0.076*58
$GPGGA,043014.60,3911.6402069,N,09634.4652139,W,4,11,1.0,318.924,M,-28.308,M,11.0,1015*4F
$GPGST,043014.60,0.091,0.044,0.026,293.267,0.029,0.041,0.076*5B
$GPGGA,043014.70,3911.6402116,N,09634.4652103,W,4,11,1.0,318.927,M,-28.308,M,11.0,1015*4D
$GPGST,043014.70,0.091,0.044,0.026,293.267,0.029,0.041,0.076*5A
$GPGGA,043014.80,3911.6402105,N,09634.4652132,W,4,11,1.0,318.921,M,-28.308,M,11.0,1015*44
$GPGST,043014.80,0.091,0.044,0.026,293.267,0.029,0.041,0.076*55
$GPGGA,043014.90,3911.6402104,N,09634.4652129,W,4,11,1.0,318.936,M,-28.308,M,11.0,1015*48
$GPGST,043014.90,0.091,0.044,0.026,293.267,0.029,0.041,0.076*54
$GPGGA,043015.00,3911.6402112,N,09634.4652126,W,4,11,1.0,318.935,M,-28.308,M,12.0,1015*48
$GPGST,043015.00,0.091,0.044,0.026,293.267,0.030,0.042,0.076*57
$GPGGA,043015.10,3911.6402110,N,09634.4652112,W,4,11,1.0,318.938,M,-28.308,M,12.0,1015*41
$GPGST,043015.10,0.091,0.044,0.026,293.267,0.030,0.042,0.076*56
$GPGGA,043015.20,3911.6402105,N,09634.4652137,W,4,11,1.0,318.924,M,-28.308,M,12.0,1015*4C
$GPGST,043015.20,0.091,0.044,0.026,293.267,0.030,0.042,0.076*55
$GPGGA,043015.30,3911.6402095,N,09634.4652134,W,4,11,1.0,318.935,M,-28.308,M,12.0,1015*46
$GPGST,043015.30,0.091,0.044,0.026,293.267,0.030,0.042,0.076*54
$GPGGA,043015.40,3911.6402084,N,09634.4652154,W,4,11,1.0,318.916,M,-28.308,M,12.0,1015*46
$GPGST,043015.40,0.091,0.044,0.026,293.267,0.030,0.042,0.076*53
$GPGGA,043015.50,3911.6402150,N,09634.4652170,W,4,11,1.0,318.932,M,-28.308,M,12.0,1015*4F
$GPGST,043015.50,0.091,0.044,0.026,293.267,0.030,0.042,0.076*52
$GPGGA,043015.60,3911.6402096,N,09634.4652112,W,4,11,1.0,318.924,M,-28.308,M,12.0,1015*44
$GPGST,043015.60,0.091,0.044,0.026,293.267,0.030,0.042,0.076*51
$GPGGA,043015.70,3911.6402114,N,09634.4652137,W,4,11,1.0,318.924,M,-28.308,M,12.0,1015*49
$GPGST,043015.70,0.091,0.044,0.026,293.267,0.030,0.042,0.076*50
$GPGGA,043015.80,3911.6402101,N,09634.4652103,W,4,11,1.0,318.936,M,-28.308,M,12.0,1015*46
$GPGST,043015.80,0.091,0.044,0.026,293.267,0.030,0.042,0.076*5F
$GPGGA,043015.90,3911.6402064,N,09634.4652117,W,4,11,1.0,318.922,M,-28.308,M,12.0,1015*45
$GPGST,043015.90,0.091,0.044,0.026,293.267,0.030,0.042,0.076*5E
$GPGGA,043016.00,3911.6402143,N,09634.4652130,W,4,11,1.0,318.926,M,-28.308,M,13.0,1015*4B
$GPGST,043016.00,0.092,0.044,0.026,293.267,0.030,0.042,0.076*57
$GPGGA,043016.10,3911.6402096,N,09634.4652120,W,4,11,1.0,318.924,M,-28.308,M,13.0,1015*40
$GPGST,043016.10,0.092,0.044,0.026,293.267,0.030,0.042,0.076*56
$GPGGA,043016.20,3911.6402112,N,09634.4652103,W,4,11,1.0,318.937,M,-28.308,M,13.0,1015*4D
$GPGST,043016.20,0.092,0.044,0.026,293.267,0.030,0.042,0.076*55
$GPGGA,043016.30,3911.6402080,N,09634.4652143,W,4,11,1.0,318.926,M,-28.308,M,13.0,1015*42
$GPGST,043016.30,0.092,0.044,0.026,293.267,0.030,0.042,0.076*54
$GPGGA,043016.40,3911.6402154,N,09634.4652095,W,4,11,1.0,318.927,M,-28.308,M,13.0,1015*46
$GPGST,043016.40,0.092,0.044,0.026,293.267,0.030,0.042,0.076*53
$GPGGA,043016.50,3911.6402142,N,09634.4652137,W,4,11,1.0,318.933,M,-28.308,M,13.0,1015*4C
$GPGST,043016.50,0.092,0.044,0.026,293.267,0.030,0.042,0.076*52
$GPGGA,043016.60,3911.6402106,N,09634.4652110,W,4,11,1.0,318.924,M,-28.308,M,13.0,1015*4C
$GPGST,043016.60,0.092,0.044,0.026,293.267,0.030,0.042,0.076*51
$GPGGA,043016.70,3911.6402092,N,09634.4652092,W,4,11,1.0,318.909,M,-28.308,M,13.0,1015*45
$GPGST,043016.70,0.092,0.044,0.026,293.267,0.030,0.042,0.076*50
$GPGGA,043016.80,3911.6402112,N,09634.4652090,W,4,11,1.0,318.926,M,-28.308,M,13.0,1015*4C
$GPGST,043016.80,0.092,0.044,0.026,293.267,0.030,0.042,0.076*5F
$GPGGA,043016.90,3911.6402121,N,09634.4652136,W,4,11,1.0,318.916,M,-28.308,M,13.0,1015*43
$GPGST,043016.90,0.092,0.044,0.026,293.267,0.030,0.042,0.076*5E
$GPGGA,043017.00,3911.6402043,N,09634.4652125,W,4,11,1.0,318.913,M,-28.308,M,14.0,1015*4E
$GPGST,043017.00,0.092,0.044,0.026,293.267,0.030,0.042,0.076*56
$GPGGA,043017.10,3911.6402023,N,09634.4652145,W,4,11,1.0,318.911,M,-28.308,M,14.0,1015*4D
$GPGST,043017.10,0.092,0.044,0.026,293.267,0.030,0.042,0.076*57
$GPGGA,043017.20,3911.6402025,N,09634.4652086,W,4,11,1.0,318.909,M,-28.308,M,14.0,1015*4F
$GPGST,043017.20,0.092,0.044,0.026,293.267,0.030,0.042,0.076*54
$GPGGA,043017.30,3911.6402016,N,09634.4652140,W,4,11,1.0,318.911,M,-28.308,M,14.0,1015*4C
$GPGST,043017.30,0.092,0.044,0.026,293.267,0.030,0.042,0.076*55
$GPGGA,043017.40,3911.6402053,N,09634.4652076,W,4,11,1.0,318.905,M,-28.308,M,14.0,1015*4B
$GPGST,043017.40,0.092,0.044,0.026,293.267,0.030,0.042,0.076*52
$GPGGA,043017.50,3911.6402039,N,09634.4652124,W,4,11,1.0,318.900,M,-28.308,M,14.0,1015*45
$GPGST,043017.50,0.092,0.044,0.026,293.267,0.030,0.042,0.076*53
$GPGGA,043017.60,3911.6402055,N,09634.4652086,W,4,11,1.0,318.899,M,-28.308,M,14.0,1015*44
$GPGST,043017.60,0.092,0.044,0.026,293.267,0.030,0.042,0.076*50
$GPGGA,043017.70,3911.6402011,N,09634.4652103,W,4,11,1.0,318.873,M,-28.308,M,14.0,1015*4D
$GPGST,043017.70,0.092,0.044,0.026,293.267,0.030,0.042,0.076*51
$GPGGA,043017.80,3911.6402014,N,09634.4652093,W,4,11,1.0,318.885,M,-28.308,M,14.0,1015*46
$GPGST,043017.80,0.092,0.044,0.026,293.267,0.030,0.042,0.076*5E
$GPGGA,043017.90,3911.6401985,N,09634.4652046,W,4,11,1.0,318.872,M,-28.308,M,14.0,1015*45
$GPGST,043017.90,0.092,0.044,0.026,293.267,0.030,0.042,0.076*5F
$GPGGA,043018.00,3911.6402026,N,09634.4651998,W,4,11,1.0,318.877,M,-28.308,M,15.0,1015*4D
$GPGST,043018.00,0.092,0.044,0.026,293.267,0.030,0.042,0.077*58
$GPGGA,043018.10,3911.6402051,N,09634.4652035,W,4,11,1.0,318.888,M,-28.308,M,15.0,1015*41
$GPGST,043018.10,0.092,0.044,0.026,293.267,0.030,0.042,0.077*59
$GPGGA,043018.20,3911.6402100,N,09634.4651980,W,4,11,1.0,318.889,M,-28.308,M,15.0,1015*42
$GPGST,043018.20,0.092,0.044,0.026,293.267,0.030,0.042,0.077*5A
$GPGGA,043018.30,3911.6402030,N,09634.4652033,W,4,11,1.0,318.874,M,-28.308,M,15.0,1015*41
$GPGST,043018.30,0.092,0.044,0.026,293.267,0.030,0.042,0.077*5B
$GPGGA,043018.40,3911.6402073,N,09634.4652018,W,4,11,1.0,318.879,M,-28.308,M,15.0,1015*45
$GPGST,043018.40,0.092,0.044,0.026,293.267,0.030,0.042,0.077*5C
$GPGGA,043018.50,3911.6402052,N,09634.4652010,W,4,11,1.0,318.887,M,-28.308,M,15.0,1015*4E
$GPGST,043018.50,0.092,0.044,0.026,293.267,0.030,0.042,0.077*5D
$GPGGA,043018.60,3911.6401975,N,09634.4652026,W,4,11,1.0,318.867,M,-28.308,M,15.0,1015*49
$GPGST,043018.60,0.092,0.044,0.026,293.267,0.030,0.042,0.077*5E
$GPGGA,043018.70,3911.6402030,N,09634.4651996,W,4,11,1.0,318.897,M,-28.308,M,15.0,1015*4D
$GPGST,043018.70,0.092,0.044,0.026,293.267,0.030,0.042,0.077*5F
$GPGGA,043018.80,3911.6402023,N,09634.4652016,W,4,11,1.0,318.873,M,-28.308,M,15.0,1015*48
$GPGST,043018.80,0.092,0.044,0.026,293.267,0.030,0.042,0.077*50
$GPGGA,043018.90,3911.6402067,N,09634.4651998,W,4,11,1.0,318.882,M,-28.308,M,15.0,1015*4B
$GPGST,043018.90,0.092,0.044,0.026,293.267,0.030,0.042,0.077*51
$GPGGA,043019.00,3911.6402004,N,09634.4651996,W,4,11,1.0,318.867,M,-28.308,M,16.0,1015*40
$GPGST,043019.00,0.093,0.044,0.027,293.267,0.030,0.042,0.077*59
$GPGGA,043019.10,3911.6402046,N,09634.4652005,W,4,11,1.0,318.865,M,-28.308,M,16.0,1015*45
$GPGST,043019.10,0.093,0.044,0.027,293.267,0.030,0.042,0.077*58
$GPGGA,043019.20,3911.6402005,N,09634.4652001,W,4,11,1.0,318.855,M,-28.308,M,16.0,1015*46
$GPGST,043019.20,0.093,0.044,0.027,293.267,0.030,0.042,0.077*5B
$GPGGA,043019.30,3911.6401992,N,09634.4651978,W,4,11,1.0,318.853,M,-28.308,M,16.0,1015*41
$GPGST,043019.30,0.093,0.044,0.027,293.267,0.030,0.042,0.077*5A
$GPGGA,043019.40,3911.6401992,N,09634.4652011,W,4,11,1.0,318.852,M,-28.308,M,16.0,1015*42
$GPGST,043019.40,0.093,0.044,0.027,293.267,0.030,0.042,0.077*5D
$GPGGA,043019.50,3911.6401980,N,09634.4651960,W,4,11,1.0,318.855,M,-28.308,M,16.0,1015*4B
$GPGST,043019.50,0.093,0.044,0.027,293.267,0.030,0.042,0.077*5C
$GPGGA,043019.60,3911.6401986,N,09634.4651952,W,4,11,1.0,318.852,M,-28.308,M,16.0,1015*48
$GPGST,043019.60,0.093,0.044,0.027,293.267,0.030,0.042,0.077*5F
$GPGGA,043019.70,3911.6402039,N,09634.4651950,W,4,11,1.0,318.874,M,-28.308,M,16.0,1015*41
$GPGST,043019.70,0.093,0.044,0.027,293.267,0.030,0.042,0.077*5E
$GPGGA,043019.80,3911.6402012,N,09634.4651975,W,4,11,1.0,318.864,M,-28.308,M,16.0,1015*41
$GPGST,043019.80,0.093,0.044,0.027,293.267,0.030,0.042,0.077*51
$GPGGA,043019.90,3911.6402019,N,09634.4651975,W,4,11,1.0,318.874,M,-28.308,M,16.0,1015*4A
$GPGST,043019.90,0.093,0.044,0.027,293.267,0.030,0.042,0.077*50
$GPGGA,043020.00,3911.6401991,N,09634.4652028,W,4,11,1.0,318.867,M,-28.308,M,17.0,1015*42
$GPGST,043020.00,0.093,0.045,0.027,293.267,0.030,0.042,0.077*52
$GPGGA,043020.10,3911.6401979,N,09634.4652014,W,4,11,1.0,318.869,M,-28.308,M,17.0,1015*44
$GPGST,043020.10,0.093,0.045,0.027,293.267,0.030,0.042,0.077*53
$GPGGA,043020.20,3911.6402001,N,09634.4652013,W,4,11,1.0,318.875,M,-28.308,M,17.0,1015*48
$GPGST,043020.20,0.093,0.045,0.027,293.267,0.030,0.042,0.077*50
$GPGGA,043020.30,3911.6401967,N,09634.4652024,W,4,11,1.0,318.854,M,-28.308,M,17.0,1015*44
$GPGST,043020.30,0.093,0.045,0.027,293.267,0.030,0.042,0.077*51
$GPGGA,043020.40,3911.6402000,N,09634.4652028,W,4,11,1.0,318.867,M,-28.308,M,17.0,1015*44
$GPGST,043020.40,0.093,0.045,0.027,293.267,0.030,0.042,0.077*56
$GPGGA,043020.50,3911.6401945,N,09634.4652042,W,4,11,1.0,318.853,M,-28.308,M,17.0,1015*45
$GPGST,043020.50,0.093,0.045,0.027,293.267,0.030,0.042,0.077*57
$GPGGA,043020.60,3911.6401959,N,09634.4652048,W,4,11,1.0,318.868,M,-28.308,M,17.0,1015*49
$GPGST,043020.60,0.093,0.045,0.027,293.267,0.030,0.042,0.077*54
$GPGGA,043020.70,3911.6401972,N,09634.4652059,W,4,11,1.0,318.868,M,-28.308,M,17.0,1015*41
$GPGST,043020.70,0.093,0.045,0.027,293.267,0.030,0.042,0.077*55
$GPGGA,043020.80,3911.6402021,N,09634.4652000,W,4,11,1.0,318.874,M,-28.308,M,17.0,1015*43
$GPGST,043020.80,0.093,0.045,0.027,293.267,0.030,0.042,0.077*5A
$GPGGA,043020.90,3911.6401935,N,09634.4652017,W,4,11,1.0,318.859,M,-28.308,M,17.0,1015*44
$GPGST,043020.90,0.093,0.045,0.027,293.267,0.030,0.042,0.077*5B
$GPGGA,043021.00,3911.6401974,N,09634.4652002,W,4,11,1.0,318.869,M,-28.308,M,18.0,1015*41
$GPGST,043021.00,0.093,0.045,0.027,293.267,0.030,0.042,0.078*5C
$GPGGA,043021.10,3911.6401951,N,09634.4651981,W,4,11,1.0,318.868,M,-28.308,M,18.0,1015*47
$GPGST,043021.10,0.093,0.045,0.027,293.267,0.030,0.042,0.078*5D
$GPGGA,043021.20,3911.6401954,N,09634.4651997,W,4,11,1.0,318.865,M,-28.308,M,18.0,1015*4B
$GPGST,043021.20,0.093,0.045,0.027,293.267,0.030,0.042,0.078*5E
$GPGGA,043021.30,3911.6401962,N,09634.4651969,W,4,11,1.0,318.867,M,-28.308,M,18.0,1015*4C
$GPGST,043021.30,0.093,0.045,0.027,293.267,0.030,0.042,0.078*5F
$GPGGA,043021.40,3911.6401961,N,09634.4651998,W,4,11,1.0,318.878,M,-28.308,M,18.0,1015*48
$GPGST,043021.40,0.093,0.045,0.027,293.267,0.030,0.042,0.078*58
$GPGGA,043021.50,3911.6402009,N,09634.4651961,W,4,11,1.0,318.872,M,-28.308,M,18.0,1015*41
$GPGST,043021.50,0.093,0.045,0.027,293.267,0.030,0.042,0.078*59
$GPGGA,043021.60,3911.6401925,N,09634.4651965,W,4,11,1.0,318.853,M,-28.308,M,18.0,1015*41
$GPGST,043021.60,0.093,0.045,0.027,293.267,0.030,0.042,0.078*5A
$GPGGA,043021.70,3911.6401975,N,09634.4652002,W,4,11,1.0,318.879,M,-28.308,M,18.0,1015*46
$GPGST,043021.70,0.093,0.045,0.027,293.267,0.030,0.042,0.078*5B
$GPGGA,043021.80,3911.6401998,N,09634.4651965,W,4,11,1.0,318.872,M,-28.308,M,18.0,1015*4A
$GPGST,043021.80,0.093,0.045,0.027,293.267,0.030,0.042,0.078*54
$GPGGA,043021.90,3911.6401985,N,09634.4652015,W,4,11,1.0,318.874,M,-28.308,M,18.0,1015*4C
$GPGST,043021.90,0.093,0.045,0.027,293.267,0.030,0.042,0.078*55
$GPGGA,043022.00,3911.6401927,N,09634.4651982,W,4,11,1.0,318.871,M,-28.308,M,19.0,1015*4E
$GPGST,043022.00,0.094,0.045,0.027,293.267,0.030,0.043,0.078*59
$GPGGA,043022.10,3911.6401951,N,09634.4651961,W,4,11,1.0,318.872,M,-28.308,M,19.0,1015*40
$GPGST,043022.10,0.094,0.045,0.027,293.267,0.030,0.043,0.078*58
$GPGGA,043022.20,3911.6401990,N,09634.4651985,W,4,11,1.0,318.865,M,-28.308,M,19.0,1015*42
$GPGST,043022.20,0.094,0.045,0.027,293.267,0.030,0.043,0.078*5B
$GPGGA,043022.30,3911.6401988,N,09634.4651974,W,4,11,1.0,318.882,M,-28.308,M,19.0,1015*4D
$GPGST,043022.30,0.094,0.045,0.027,293.267,0.030,0.043,0.078*5A
$GPGGA,043022.40,3911.6401874,N,09634.4652029,W,4,11,1.0,318.866,M,-28.308,M,19.0,1015*40
$GPGST,043022.40,0.094,0.045,0.027,293.267,0.030,0.043,0.078*5D
$GPGGA,043022.50,3911.6401933,N,09634.4652005,W,4,11,1.0,318.866,M,-28.308,M,19.0,1015*4D
$GPGST,043022.50,0.094,0.045,0.027,293.267,0.030,0.043,0.078*5C
$GPGGA,043022.60,3911.6402040,N,09634.4651986,W,4,11,1.0,318.876,M,-28.308,M,19.0,1015*40
$GPGST,043022.60,0.094,0.045,0.027,293.267,0.030,0.043,0.078*5F
$GPGGA,043022.70,3911.6401981,N,09634.4651971,W,4,11,1.0,318.872,M,-28.308,M,19.0,1015*4A
$GPGST,043022.70,0.094,0.045,0.027,293.267,0.030,0.043,0.078*5E
$GPGGA,043022.80,3911.6402019,N,09634.4651945,W,4,11,1.0,318.867,M,-28.308,M,19.0,1015*4D
$GPGST,043022.80,0.094,0.045,0.027,293.267,0.030,0.043,0.078*51
$GPGGA,043022.90,3911.6401978,N,09634.4651959,W,4,11,1.0,318.871,M,-28.308,M,19.0,1015*4B
$GPGST,043022.90,0.094,0.045,0.027,293.267,0.030,0.043,0.078*50
$GPGGA,043023.00,3911.6402036,N,09634.4651988,W,4,11,1.0,318.888,M,-28.308,M,10.0,1015*40
$GPGST,043023.00,0.090,0.043,0.026,292.838,0.029,0.041,0.075*5D
$GPGGA,043023.10,3911.6402050,N,09634.4651929,W,4,11,1.0,318.884,M,-28.308,M,10.0,1015*46
$GPGST,043023.10,0.090,0.043,0.026,292.838,0.029,0.041,0.075*5C
$GPGGA,043023.20,3911.6401959,N,09634.4651946,W,4,11,1.0,318.890,M,-28.308,M,10.0,1015*4A
$GPGST,043023.20,0.090,0.043,0.026,292.838,0.029,0.041,0.075*5F
$GPGGA,043023.30,3911.6402094,N,09634.4651896,W,4,11,1.0,318.902,M,-28.308,M,10.0,1015*46
$GPGST,043023.30,0.090,0.043,0.026,292.838,0.029,0.041,0.075*5E
$GPGGA,043023.40,3911.6402022,N,09634.4651957,W,4,11,1.0,318.888,M,-28.308,M,10.0,1015*43
$GPGST,043023.40,0.090,0.043,0.026,292.838,0.029,0.041,0.075*59
$GPGGA,043023.50,3911.6402034,N,09634.4651901,W,4,11,1.0,318.889,M,-28.308,M,10.0,1015*47
$GPGST,043023.50,0.090,0.043,0.026,292.838,0.029,0.041,0.075*58
